$GPGGA,102528.000,4804.2709,N,00143.5751,W,1,00,,37.4,M,0.0,M,,0000*68
$GPRMC,102528.000,A,4804.2709,N,00143.5751,W,052.73,0.0,151020,,,E*44
$GPGGA,102529.000,4804.2737,N,00143.5962,W,1,00,,37.5,M,0.0,M,,0000*6B
$GPRMC,102529.000,A,4804.2737,N,00143.5962,W,051.66,0.0,151020,,,E*41
$GPGGA,102530.000,4804.2762,N,00143.6168,W,1,00,,37.7,M,0.0,M,,0000*60
$GPRMC,102530.000,A,4804.2762,N,00143.6168,W,050.11,0.0,151020,,,E*49
$GPGGA,102531.000,4804.2787,N,00143.6368,W,1,00,,37.8,M,0.0,M,,0000*67
$GPRMC,102531.000,A,4804.2787,N,00143.6368,W,048.60,0.0,151020,,,E*4E
$GPGGA,102532.000,4804.2812,N,00143.6562,W,1,00,,37.8,M,0.0,M,,0000*6B
$GPRMC,102532.000,A,4804.2812,N,00143.6562,W,047.45,0.0,151020,,,E*4A
$GPGGA,102533.000,4804.2835,N,00143.6760,W,1,00,,37.9,M,0.0,M,,0000*6E
$GPRMC,102533.000,A,4804.2835,N,00143.6760,W,049.44,0.0,151020,,,E*41
$GPGGA,102534.000,4804.2858,N,00143.6964,W,1,00,,37.8,M,0.0,M,,0000*69
$GPRMC,102534.000,A,4804.2858,N,00143.6964,W,051.11,0.0,151020,,,E*4E
$GPGGA,102535.000,4804.2888,N,00143.7177,W,1,00,,37.7,M,0.0,M,,0000*61
$GPRMC,102535.000,A,4804.2888,N,00143.7177,W,053.14,0.0,151020,,,E*4E
$GPGGA,102536.000,4804.2918,N,00143.7410,W,1,00,,38.0,M,0.0,M,,0000*66
$GPRMC,102536.000,A,4804.2918,N,00143.7410,W,059.82,0.0,151020,,,E*44
$GPGGA,102537.000,4804.2950,N,00143.7655,W,1,00,,38.0,M,0.0,M,,0000*68
$GPRMC,102537.000,A,4804.2950,N,00143.7655,W,061.13,0.0,151020,,,E*49
$GPGGA,102538.000,4804.2984,N,00143.7909,W,1,00,,38.1,M,0.0,M,,0000*69
$GPRMC,102538.000,A,4804.2984,N,00143.7909,W,063.71,0.0,151020,,,E*4F
$GPGGA,102539.000,4804.3018,N,00143.8169,W,1,00,,38.3,M,0.0,M,,0000*66
$GPRMC,102539.000,A,4804.3018,N,00143.8169,W,064.65,0.0,151020,,,E*40
$GPGGA,102540.000,4804.3055,N,00143.8440,W,1,00,,38.5,M,0.0,M,,0000*69
$GPRMC,102540.000,A,4804.3055,N,00143.8440,W,067.03,0.0,151020,,,E*4A
$GPGGA,102541.000,4804.3082,N,00143.8722,W,1,00,,40.0,M,0.0,M,,0000*6F
$GPRMC,102541.000,A,4804.3082,N,00143.8722,W,068.85,0.0,151020,,,E*47
$GPGGA,102542.000,4804.3114,N,00143.9011,W,1,00,,41.8,M,0.0,M,,0000*6D
$GPRMC,102542.000,A,4804.3114,N,00143.9011,W,070.71,0.0,151020,,,E*4E
$GPGGA,102543.000,4804.3151,N,00143.9305,W,1,00,,43.0,M,0.0,M,,0000*61
$GPRMC,102543.000,A,4804.3151,N,00143.9305,W,072.26,0.0,151020,,,E*48
$GPGGA,102544.000,4804.3188,N,00143.9605,W,1,00,,43.9,M,0.0,M,,0000*6E
$GPRMC,102544.000,A,4804.3188,N,00143.9605,W,073.67,0.0,151020,,,E*4A
$GPGGA,102545.000,4804.3224,N,00143.9910,W,1,00,,44.4,M,0.0,M,,0000*6B
$GPRMC,102545.000,A,4804.3224,N,00143.9910,W,075.21,0.0,151020,,,E*41
$GPGGA,102546.000,4804.3261,N,00144.0222,W,1,00,,45.2,M,0.0,M,,0000*6A
$GPRMC,102546.000,A,4804.3261,N,00144.0222,W,076.92,0.0,151020,,,E*4C
$GPGGA,102547.000,4804.3302,N,00144.0540,W,1,00,,46.3,M,0.0,M,,0000*6E
$GPRMC,102547.000,A,4804.3302,N,00144.0540,W,078.44,0.0,151020,,,E*4F
$GPGGA,102548.000,4804.3346,N,00144.0863,W,1,00,,47.6,M,0.0,M,,0000*69
$GPRMC,102548.000,A,4804.3346,N,00144.0863,W,079.49,0.0,151020,,,E*40
$GPGGA,102549.000,4804.3389,N,00144.1189,W,1,00,,49.0,M,0.0,M,,0000*6F
$GPRMC,102549.000,A,4804.3389,N,00144.1189,W,080.28,0.0,151020,,,E*4F
$GPGGA,102550.000,4804.3437,N,00144.1518,W,1,00,,50.3,M,0.0,M,,0000*62
$GPRMC,102550.000,A,4804.3437,N,00144.1518,W,081.36,0.0,151020,,,E*47
$GPGGA,102551.000,4804.3485,N,00144.1852,W,1,00,,51.7,M,0.0,M,,0000*6C
$GPRMC,102551.000,A,4804.3485,N,00144.1852,W,082.58,0.0,151020,,,E*47
$GPGGA,102552.000,4804.3533,N,00144.2190,W,1,00,,52.9,M,0.0,M,,0000*6A
$GPRMC,102552.000,A,4804.3533,N,00144.2190,W,083.63,0.0,151020,,,E*45
$GPGGA,102553.000,4804.3584,N,00144.2532,W,1,00,,54.5,M,0.0,M,,0000*61
$GPRMC,102553.000,A,4804.3584,N,00144.2532,W,084.90,0.0,151020,,,E*4F
$GPGGA,102554.000,4804.3634,N,00144.2879,W,1,00,,56.4,M,0.0,M,,0000*6F
$GPRMC,102554.000,A,4804.3634,N,00144.2879,W,085.55,0.0,151020,,,E*4A
$GPGGA,102555.000,4804.3682,N,00144.3229,W,1,00,,58.5,M,0.0,M,,0000*62
$GPRMC,102555.000,A,4804.3682,N,00144.3229,W,086.42,0.0,151020,,,E*4D
$GPGGA,102556.000,4804.3732,N,00144.3582,W,1,00,,60.6,M,0.0,M,,0000*65
$GPRMC,102556.000,A,4804.3732,N,00144.3582,W,087.01,0.0,151020,,,E*44
$GPGGA,102557.000,4804.3778,N,00144.3938,W,1,00,,63.1,M,0.0,M,,0000*63
$GPRMC,102557.000,A,4804.3778,N,00144.3938,W,087.24,0.0,151020,,,E*41
$GPGGA,102558.000,4804.3822,N,00144.4293,W,1,00,,66.0,M,0.0,M,,0000*65
$GPRMC,102558.000,A,4804.3822,N,00144.4293,W,086.70,0.0,151020,,,E*43
$GPGGA,102559.000,4804.3858,N,00144.4649,W,1,00,,70.2,M,0.0,M,,0000*6F
$GPRMC,102559.000,A,4804.3858,N,00144.4649,W,086.35,0.0,151020,,,E*4D
$GPGGA,102600.000,4804.3895,N,00144.5001,W,1,00,,75.2,M,0.0,M,,0000*6F
$GPRMC,102600.000,A,4804.3895,N,00144.5001,W,085.04,0.0,151020,,,E*49
$GPGGA,102601.000,4804.3938,N,00144.5347,W,1,00,,80.8,M,0.0,M,,0000*69
$GPRMC,102601.000,A,4804.3938,N,00144.5347,W,084.21,0.0,151020,,,E*49
$GPGGA,102602.000,4804.3989,N,00144.5687,W,1,00,,86.1,M,0.0,M,,0000*66
$GPRMC,102602.000,A,4804.3989,N,00144.5687,W,083.57,0.0,151020,,,E*4F
$GPGGA,102603.000,4804.4037,N,00144.6025,W,1,00,,91.0,M,0.0,M,,0000*66
$GPRMC,102603.000,A,4804.4037,N,00144.6025,W,083.00,0.0,151020,,,E*4A
$GPGGA,102604.000,4804.4085,N,00144.6362,W,1,00,,95.5,M,0.0,M,,0000*69
$GPRMC,102604.000,A,4804.4085,N,00144.6362,W,082.93,0.0,151020,,,E*4F
$GPGGA,102605.000,4804.4131,N,00144.6700,W,1,00,,99.6,M,0.0,M,,0000*69
$GPRMC,102605.000,A,4804.4131,N,00144.6700,W,083.24,0.0,151020,,,E*4D
$GPGGA,102606.000,4804.4179,N,00144.7037,W,1,00,,103.4,M,0.0,M,,0000*54
$GPRMC,102606.000,A,4804.4179,N,00144.7037,W,083.24,0.0,151020,,,E*40
$GPGGA,102607.000,4804.4227,N,00144.7375,W,1,00,,106.8,M,0.0,M,,0000*51
$GPRMC,102607.000,A,4804.4227,N,00144.7375,W,083.38,0.0,151020,,,E*41
$GPGGA,102608.000,4804.4277,N,00144.7713,W,1,00,,110.4,M,0.0,M,,0000*54
$GPRMC,102608.000,A,4804.4277,N,00144.7713,W,083.29,0.0,151020,,,E*4F
$GPGGA,102609.000,4804.4325,N,00144.8050,W,1,00,,114.1,M,0.0,M,,0000*5D
$GPRMC,102609.000,A,4804.4325,N,00144.8050,W,083.30,0.0,151020,,,E*4F
$GPGGA,102610.000,4804.4378,N,00144.8387,W,1,00,,117.7,M,0.0,M,,0000*51
$GPRMC,102610.000,A,4804.4378,N,00144.8387,W,083.16,0.0,151020,,,E*42
$GPGGA,102611.000,4804.4426,N,00144.8723,W,1,00,,121.6,M,0.0,M,,0000*52
$GPRMC,102611.000,A,4804.4426,N,00144.8723,W,083.01,0.0,151020,,,E*43
$GPGGA,102612.000,4804.4476,N,00144.9059,W,1,00,,125.4,M,0.0,M,,0000*59
$GPRMC,102612.000,A,4804.4476,N,00144.9059,W,082.93,0.0,151020,,,E*44
$GPGGA,102613.000,4804.4522,N,00144.9397,W,1,00,,128.8,M,0.0,M,,0000*58
$GPRMC,102613.000,A,4804.4522,N,00144.9397,W,083.04,0.0,151020,,,E*4B
$GPGGA,102614.000,4804.4566,N,00144.9736,W,1,00,,131.9,M,0.0,M,,0000*59
$GPRMC,102614.000,A,4804.4566,N,00144.9736,W,083.83,0.0,151020,,,E*4C
$GPGGA,102615.000,4804.4614,N,00145.0079,W,1,00,,134.6,M,0.0,M,,0000*50
$GPRMC,102615.000,A,4804.4614,N,00145.0079,W,085.05,0.0,151020,,,E*47
$GPGGA,102616.000,4804.4659,N,00145.0427,W,1,00,,136.9,M,0.0,M,,0000*58
$GPRMC,102616.000,A,4804.4659,N,00145.0427,W,086.32,0.0,151020,,,E*45
$GPGGA,102617.000,4804.4710,N,00145.0780,W,1,00,,138.8,M,0.0,M,,0000*54
$GPRMC,102617.000,A,4804.4710,N,00145.0780,W,087.79,0.0,151020,,,E*48
$GPGGA,102618.000,4804.4756,N,00145.1138,W,1,00,,140.2,M,0.0,M,,0000*58
$GPRMC,102618.000,A,4804.4756,N,00145.1138,W,088.75,0.0,151020,,,E*42
$GPGGA,102619.000,4804.4804,N,00145.1500,W,1,00,,141.2,M,0.0,M,,0000*5F
$GPRMC,102619.000,A,4804.4804,N,00145.1500,W,089.30,0.0,151020,,,E*44
$GPGGA,102620.000,4804.4852,N,00145.1865,W,1,00,,142.7,M,0.0,M,,0000*5E
$GPRMC,102620.000,A,4804.4852,N,00145.1865,W,089.90,0.0,151020,,,E*49
$GPGGA,102621.000,4804.4895,N,00145.2233,W,1,00,,144.5,M,0.0,M,,0000*5A
$GPRMC,102621.000,A,4804.4895,N,00145.2233,W,090.37,0.0,151020,,,E*4C
$GPGGA,102622.000,4804.4941,N,00145.2603,W,1,00,,146.5,M,0.0,M,,0000*54
$GPRMC,102622.000,A,4804.4941,N,00145.2603,W,090.67,0.0,151020,,,E*45
$GPGGA,102623.000,4804.4984,N,00145.2974,W,1,00,,147.9,M,0.0,M,,0000*5E
$GPRMC,102623.000,A,4804.4984,N,00145.2974,W,091.25,0.0,151020,,,E*45
$GPGGA,102624.000,4804.5028,N,00145.3349,W,1,00,,149.1,M,0.0,M,,0000*54
$GPRMC,102624.000,A,4804.5028,N,00145.3349,W,092.13,0.0,151020,,,E*4F
$GPGGA,102625.000,4804.5069,N,00145.3727,W,1,00,,150.5,M,0.0,M,,0000*50
$GPRMC,102625.000,A,4804.5069,N,00145.3727,W,092.86,0.0,151020,,,E*4B
$GPGGA,102626.000,4804.5113,N,00145.4108,W,1,00,,152.3,M,0.0,M,,0000*57
$GPRMC,102626.000,A,4804.5113,N,00145.4108,W,093.32,0.0,151020,,,E*46
$GPGGA,102627.000,4804.5154,N,00145.4490,W,1,00,,154.4,M,0.0,M,,0000*50
$GPRMC,102627.000,A,4804.5154,N,00145.4490,W,093.25,0.0,151020,,,E*46
$GPGGA,102628.000,4804.5197,N,00145.4871,W,1,00,,156.8,M,0.0,M,,0000*5D
$GPRMC,102628.000,A,4804.5197,N,00145.4871,W,092.80,0.0,151020,,,E*4B
$GPGGA,102629.000,4804.5241,N,00145.5249,W,1,00,,159.5,M,0.0,M,,0000*56
$GPRMC,102629.000,A,4804.5241,N,00145.5249,W,091.71,0.0,151020,,,E*4F
$GPGGA,102630.000,4804.5284,N,00145.5622,W,1,00,,162.8,M,0.0,M,,0000*5B
$GPRMC,102630.000,A,4804.5284,N,00145.5622,W,091.14,0.0,151020,,,E*44
$GPGGA,102631.000,4804.5316,N,00145.5998,W,1,00,,169.1,M,0.0,M,,0000*5C
$GPRMC,102631.000,A,4804.5316,N,00145.5998,W,090.90,0.0,151020,,,E*4C
$GPGGA,102632.000,4804.5348,N,00145.6372,W,1,00,,174.7,M,0.0,M,,0000*53
$GPRMC,102632.000,A,4804.5348,N,00145.6372,W,090.93,0.0,151020,,,E*4A
$GPGGA,102633.000,4804.5385,N,00145.6745,W,1,00,,178.7,M,0.0,M,,0000*5F
$GPRMC,102633.000,A,4804.5385,N,00145.6745,W,090.71,0.0,151020,,,E*46
$GPGGA,102634.000,4804.5426,N,00145.7117,W,1,00,,182.1,M,0.0,M,,0000*55
$GPRMC,102634.000,A,4804.5426,N,00145.7117,W,090.82,0.0,151020,,,E*43
$GPGGA,102635.000,4804.5470,N,00145.7489,W,1,00,,185.2,M,0.0,M,,0000*51
$GPRMC,102635.000,A,4804.5470,N,00145.7489,W,091.12,0.0,151020,,,E*4B
$GPGGA,102636.000,4804.5511,N,00145.7861,W,1,00,,188.0,M,0.0,M,,0000*51
$GPRMC,102636.000,A,4804.5511,N,00145.7861,W,091.06,0.0,151020,,,E*41
$GPGGA,102637.000,4804.5552,N,00145.8234,W,1,00,,191.4,M,0.0,M,,0000*5E
$GPRMC,102637.000,A,4804.5552,N,00145.8234,W,091.13,0.0,151020,,,E*46
$GPGGA,102638.000,4804.5593,N,00145.8606,W,1,00,,194.6,M,0.0,M,,0000*5E
$GPRMC,102638.000,A,4804.5593,N,00145.8606,W,091.01,0.0,151020,,,E*42
$GPGGA,102639.000,4804.5637,N,00145.8978,W,1,00,,198.1,M,0.0,M,,0000*5F
$GPRMC,102639.000,A,4804.5637,N,00145.8978,W,090.74,0.0,151020,,,E*4B
$GPGGA,102640.000,4804.5676,N,00145.9348,W,1,00,,201.7,M,0.0,M,,0000*59
$GPRMC,102640.000,A,4804.5676,N,00145.9348,W,090.52,0.0,151020,,,E*4C
$GPGGA,102641.000,4804.5715,N,00145.9719,W,1,00,,205.5,M,0.0,M,,0000*5A
$GPRMC,102641.000,A,4804.5715,N,00145.9719,W,090.54,0.0,151020,,,E*4F
$GPGGA,102642.000,4804.5751,N,00146.0090,W,1,00,,209.6,M,0.0,M,,0000*5A
$GPRMC,102642.000,A,4804.5751,N,00146.0090,W,090.55,0.0,151020,,,E*41
$GPGGA,102643.000,4804.5783,N,00146.0462,W,1,00,,213.8,M,0.0,M,,0000*58
$GPRMC,102643.000,A,4804.5783,N,00146.0462,W,090.34,0.0,151020,,,E*41
$GPGGA,102644.000,4804.5815,N,00146.0833,W,1,00,,217.8,M,0.0,M,,0000*53
$GPRMC,102644.000,A,4804.5815,N,00146.0833,W,090.20,0.0,151020,,,E*4B
$GPGGA,102645.000,4804.5845,N,00146.1204,W,1,00,,222.2,M,0.0,M,,0000*54
$GPRMC,102645.000,A,4804.5845,N,00146.1204,W,090.16,0.0,151020,,,E*45
$GPGGA,102646.000,4804.5872,N,00146.1575,W,1,00,,226.6,M,0.0,M,,0000*52
$GPRMC,102646.000,A,4804.5872,N,00146.1575,W,090.06,0.0,151020,,,E*42
$GPGGA,102647.000,4804.5900,N,00146.1945,W,1,00,,231.5,M,0.0,M,,0000*5D
$GPRMC,102647.000,A,4804.5900,N,00146.1945,W,089.68,0.0,151020,,,E*48
$GPGGA,102648.000,4804.5930,N,00146.2313,W,1,00,,236.4,M,0.0,M,,0000*5D
$GPRMC,102648.000,A,4804.5930,N,00146.2313,W,089.22,0.0,151020,,,E*40
$GPGGA,102649.000,4804.5955,N,00146.2680,W,1,00,,241.5,M,0.0,M,,0000*51
$GPRMC,102649.000,A,4804.5955,N,00146.2680,W,088.94,0.0,151020,,,E*41
$GPGGA,102650.000,4804.5985,N,00146.3046,W,1,00,,246.3,M,0.0,M,,0000*58
$GPRMC,102650.000,A,4804.5985,N,00146.3046,W,089.02,0.0,151020,,,E*47
$GPGGA,102651.000,4804.6012,N,00146.3414,W,1,00,,250.5,M,0.0,M,,0000*5F
$GPRMC,102651.000,A,4804.6012,N,00146.3414,W,089.37,0.0,151020,,,E*47
$GPGGA,102652.000,4804.6044,N,00146.3783,W,1,00,,254.3,M,0.0,M,,0000*50
$GPRMC,102652.000,A,4804.6044,N,00146.3783,W,089.99,0.0,151020,,,E*4E
$GPGGA,102653.000,4804.6081,N,00146.4155,W,1,00,,257.4,M,0.0,M,,0000*56
$GPRMC,102653.000,A,4804.6081,N,00146.4155,W,091.26,0.0,151020,,,E*41
$GPGGA,102654.000,4804.6124,N,00146.4530,W,1,00,,260.0,M,0.0,M,,0000*58
$GPRMC,102654.000,A,4804.6124,N,00146.4530,W,092.43,0.0,151020,,,E*4F
$GPGGA,102655.000,4804.6163,N,00146.4908,W,1,00,,261.9,M,0.0,M,,0000*55
$GPRMC,102655.000,A,4804.6163,N,00146.4908,W,092.44,0.0,151020,,,E*4D
$GPGGA,102656.000,4804.6195,N,00146.5286,W,1,00,,263.9,M,0.0,M,,0000*51
$GPRMC,102656.000,A,4804.6195,N,00146.5286,W,091.87,0.0,151020,,,E*47
$GPGGA,102657.000,4804.6227,N,00146.5662,W,1,00,,267.1,M,0.0,M,,0000*58
$GPRMC,102657.000,A,4804.6227,N,00146.5662,W,091.21,0.0,151020,,,E*4E
$GPGGA,102658.000,4804.6252,N,00146.6036,W,1,00,,270.7,M,0.0,M,,0000*51
$GPRMC,102658.000,A,4804.6252,N,00146.6036,W,090.59,0.0,151020,,,E*49
$GPGGA,102659.000,4804.6273,N,00146.6408,W,1,00,,274.9,M,0.0,M,,0000*50
$GPRMC,102659.000,A,4804.6273,N,00146.6408,W,089.56,0.0,151020,,,E*45
$GPGGA,102700.000,4804.6287,N,00146.6775,W,1,00,,279.9,M,0.0,M,,0000*52
$GPRMC,102700.000,A,4804.6287,N,00146.6775,W,088.07,0.0,151020,,,E*4F
$GPGGA,102701.000,4804.6301,N,00146.7136,W,1,00,,285.9,M,0.0,M,,0000*5F
$GPRMC,102701.000,A,4804.6301,N,00146.7136,W,086.58,0.0,151020,,,E*45
$GPGGA,102702.000,4804.6321,N,00146.7492,W,1,00,,292.7,M,0.0,M,,0000*5D
$GPRMC,102702.000,A,4804.6321,N,00146.7492,W,085.45,0.0,151020,,,E*40
$GPGGA,102703.000,4804.6349,N,00146.7845,W,1,00,,299.1,M,0.0,M,,0000*59
$GPRMC,102703.000,A,4804.6349,N,00146.7845,W,085.31,0.0,151020,,,E*4A
$GPGGA,102704.000,4804.6378,N,00146.8196,W,1,00,,304.3,M,0.0,M,,0000*53
$GPRMC,102704.000,A,4804.6378,N,00146.8196,W,085.17,0.0,151020,,,E*43
$GPGGA,102705.000,4804.6408,N,00146.8548,W,1,00,,309.2,M,0.0,M,,0000*59
$GPRMC,102705.000,A,4804.6408,N,00146.8548,W,085.29,0.0,151020,,,E*48
$GPGGA,102706.000,4804.6438,N,00146.8899,W,1,00,,313.5,M,0.0,M,,0000*54
$GPRMC,102706.000,A,4804.6438,N,00146.8899,W,085.60,0.0,151020,,,E*44
$GPGGA,102707.000,4804.6472,N,00146.9251,W,1,00,,317.8,M,0.0,M,,0000*5D
$GPRMC,102707.000,A,4804.6472,N,00146.9251,W,085.64,0.0,151020,,,E*40
$GPGGA,102708.000,4804.6504,N,00146.9603,W,1,00,,322.0,M,0.0,M,,0000*5F
$GPRMC,102708.000,A,4804.6504,N,00146.9603,W,085.53,0.0,151020,,,E*48
$GPGGA,102709.000,4804.6536,N,00146.9955,W,1,00,,326.1,M,0.0,M,,0000*56
$GPRMC,102709.000,A,4804.6536,N,00146.9955,W,085.43,0.0,151020,,,E*45
$GPGGA,102710.000,4804.6564,N,00147.0307,W,1,00,,330.1,M,0.0,M,,0000*5B
$GPRMC,102710.000,A,4804.6564,N,00147.0307,W,085.40,0.0,151020,,,E*4C
$GPGGA,102711.000,4804.6587,N,00147.0660,W,1,00,,333.9,M,0.0,M,,0000*58
$GPRMC,102711.000,A,4804.6587,N,00147.0660,W,085.63,0.0,151020,,,E*45
$GPGGA,102712.000,4804.6598,N,00147.1015,W,1,00,,337.6,M,0.0,M,,0000*5B
$GPRMC,102712.000,A,4804.6598,N,00147.1015,W,086.25,0.0,151020,,,E*4C
$GPGGA,102713.000,4804.6603,N,00147.1375,W,1,00,,341.1,M,0.0,M,,0000*58
$GPRMC,102713.000,A,4804.6603,N,00147.1375,W,087.23,0.0,151020,,,E*4E
$GPGGA,102714.000,4804.6591,N,00147.1738,W,1,00,,344.2,M,0.0,M,,0000*5C
$GPRMC,102714.000,A,4804.6591,N,00147.1738,W,088.37,0.0,151020,,,E*46
$GPGGA,102715.000,4804.6564,N,00147.2105,W,1,00,,347.0,M,0.0,M,,0000*5D
$GPRMC,102715.000,A,4804.6564,N,00147.2105,W,089.38,0.0,151020,,,E*48
$GPGGA,102716.000,4804.6518,N,00147.2472,W,1,00,,349.6,M,0.0,M,,0000*58
$GPRMC,102716.000,A,4804.6518,N,00147.2472,W,090.50,0.0,151020,,,E*43
$GPGGA,102717.000,4804.6449,N,00147.2838,W,1,00,,351.7,M,0.0,M,,0000*56
$GPRMC,102717.000,A,4804.6449,N,00147.2838,W,091.83,0.0,151020,,,E*4A
$GPGGA,102718.000,4804.6360,N,00147.3200,W,1,00,,353.9,M,0.0,M,,0000*59
$GPRMC,102718.000,A,4804.6360,N,00147.3200,W,092.43,0.0,151020,,,E*46
$GPGGA,102719.000,4804.6257,N,00147.3553,W,1,00,,356.5,M,0.0,M,,0000*55
$GPRMC,102719.000,A,4804.6257,N,00147.3553,W,092.95,0.0,151020,,,E*48
$GPGGA,102720.000,4804.6136,N,00147.3898,W,1,00,,359.5,M,0.0,M,,0000*5E
$GPRMC,102720.000,A,4804.6136,N,00147.3898,W,093.67,0.0,151020,,,E*40
$GPGGA,102721.000,4804.5998,N,00147.4231,W,1,00,,362.9,M,0.0,M,,0000*5A
$GPRMC,102721.000,A,4804.5998,N,00147.4231,W,094.06,0.0,151020,,,E*40
$GPGGA,102722.000,4804.5845,N,00147.4549,W,1,00,,366.7,M,0.0,M,,0000*5A
$GPRMC,102722.000,A,4804.5845,N,00147.4549,W,094.48,0.0,151020,,,E*40
$GPGGA,102723.000,4804.5673,N,00147.4848,W,1,00,,370.9,M,0.0,M,,0000*55
$GPRMC,102723.000,A,4804.5673,N,00147.4848,W,094.96,0.0,151020,,,E*45
$GPGGA,102724.000,4804.5483,N,00147.5129,W,1,00,,375.6,M,0.0,M,,0000*5A
$GPRMC,102724.000,A,4804.5483,N,00147.5129,W,095.24,0.0,151020,,,E*48
$GPGGA,102725.000,4804.5284,N,00147.5393,W,1,00,,379.8,M,0.0,M,,0000*5B
$GPRMC,102725.000,A,4804.5284,N,00147.5393,W,096.32,0.0,151020,,,E*4F
$GPGGA,102726.000,4804.5069,N,00147.5637,W,1,00,,384.0,M,0.0,M,,0000*58
$GPRMC,102726.000,A,4804.5069,N,00147.5637,W,097.52,0.0,151020,,,E*41
$GPGGA,102727.000,4804.4833,N,00147.5856,W,1,00,,388.2,M,0.0,M,,0000*58
$GPRMC,102727.000,A,4804.4833,N,00147.5856,W,098.77,0.0,151020,,,E*47
$GPGGA,102728.000,4804.4579,N,00147.6033,W,1,00,,392.3,M,0.0,M,,0000*56
$GPRMC,102728.000,A,4804.4579,N,00147.6033,W,099.84,0.0,151020,,,E*4E
$GPGGA,102729.000,4804.4307,N,00147.6159,W,1,00,,395.9,M,0.0,M,,0000*58
$GPRMC,102729.000,A,4804.4307,N,00147.6159,W,100.85,0.0,151020,,,E*4D
$GPGGA,102730.000,4804.4023,N,00147.6206,W,1,00,,399.1,M,0.0,M,,0000*58
$GPRMC,102730.000,A,4804.4023,N,00147.6206,W,099.56,0.0,151020,,,E*46
$GPGGA,102731.000,4804.3744,N,00147.6215,W,1,00,,402.8,M,0.0,M,,0000*56
$GPRMC,102731.000,A,4804.3744,N,00147.6215,W,098.85,0.0,151020,,,E*4B
$GPGGA,102732.000,4804.3465,N,00147.6173,W,1,00,,406.6,M,0.0,M,,0000*5C
$GPRMC,102732.000,A,4804.3465,N,00147.6173,W,098.39,0.0,151020,,,E*4C
$GPGGA,102733.000,4804.3190,N,00147.6094,W,1,00,,408.8,M,0.0,M,,0000*5A
$GPRMC,102733.000,A,4804.3190,N,00147.6094,W,101.40,0.0,151020,,,E*45
$GPGGA,102734.000,4804.2915,N,00147.5978,W,1,00,,410.5,M,0.0,M,,0000*55
$GPRMC,102734.000,A,4804.2915,N,00147.5978,W,101.95,0.0,151020,,,E*46
$GPGGA,102735.000,4804.2648,N,00147.5819,W,1,00,,411.3,M,0.0,M,,0000*52
$GPRMC,102735.000,A,4804.2648,N,00147.5819,W,104.12,0.0,151020,,,E*4C
$GPGGA,102736.000,4804.2393,N,00147.5613,W,1,00,,411.4,M,0.0,M,,0000*51
$GPRMC,102736.000,A,4804.2393,N,00147.5613,W,104.88,0.0,151020,,,E*4B
$GPGGA,102737.000,4804.2158,N,00147.5363,W,1,00,,410.8,M,0.0,M,,0000*5A
$GPRMC,102737.000,A,4804.2158,N,00147.5363,W,104.22,0.0,151020,,,E*4D
$GPGGA,102738.000,4804.1943,N,00147.5075,W,1,00,,410.3,M,0.0,M,,0000*5B
$GPRMC,102738.000,A,4804.1943,N,00147.5075,W,103.00,0.0,151020,,,E*40
$GPGGA,102739.000,4804.1743,N,00147.4766,W,1,00,,411.1,M,0.0,M,,0000*53
$GPRMC,102739.000,A,4804.1743,N,00147.4766,W,101.53,0.0,151020,,,E*4F
$GPGGA,102740.000,4804.1549,N,00147.4458,W,1,00,,413.5,M,0.0,M,,0000*5D
$GPRMC,102740.000,A,4804.1549,N,00147.4458,W,101.31,0.0,151020,,,E*43
$GPGGA,102741.000,4804.1354,N,00147.4151,W,1,00,,415.6,M,0.0,M,,0000*5F
$GPRMC,102741.000,A,4804.1354,N,00147.4151,W,100.20,0.0,151020,,,E*45
$GPGGA,102742.000,4804.1164,N,00147.3849,W,1,00,,418.1,M,0.0,M,,0000*50
$GPRMC,102742.000,A,4804.1164,N,00147.3849,W,098.58,0.0,151020,,,E*4F
$GPGGA,102743.000,4804.0979,N,00147.3554,W,1,00,,421.4,M,0.0,M,,0000*5A
$GPRMC,102743.000,A,4804.0979,N,00147.3554,W,097.09,0.0,151020,,,E*41
$GPGGA,102744.000,4804.0791,N,00147.3266,W,1,00,,425.5,M,0.0,M,,0000*56
$GPRMC,102744.000,A,4804.0791,N,00147.3266,W,095.22,0.0,151020,,,E*43
$GPGGA,102745.000,4804.0606,N,00147.2986,W,1,00,,430.5,M,0.0,M,,0000*58
$GPRMC,102745.000,A,4804.0606,N,00147.2986,W,094.06,0.0,151020,,,E*4E
$GPGGA,102746.000,4804.0418,N,00147.2712,W,1,00,,436.2,M,0.0,M,,0000*54
$GPRMC,102746.000,A,4804.0418,N,00147.2712,W,093.41,0.0,151020,,,E*47
$GPGGA,102747.000,4804.0233,N,00147.2441,W,1,00,,439.1,M,0.0,M,,0000*53
$GPRMC,102747.000,A,4804.0233,N,00147.2441,W,093.68,0.0,151020,,,E*47
$GPGGA,102748.000,4804.0047,N,00147.2169,W,1,00,,441.9,M,0.0,M,,0000*55
$GPRMC,102748.000,A,4804.0047,N,00147.2169,W,093.66,0.0,151020,,,E*48
$GPGGA,102749.000,4803.9864,N,00147.1894,W,1,00,,444.5,M,0.0,M,,0000*52
$GPRMC,102749.000,A,4803.9864,N,00147.1894,W,094.07,0.0,151020,,,E*46
$GPGGA,102750.000,4803.9677,N,00147.1616,W,1,00,,446.5,M,0.0,M,,0000*50
$GPRMC,102750.000,A,4803.9677,N,00147.1616,W,094.50,0.0,151020,,,E*44
$GPGGA,102751.000,4803.9491,N,00147.1339,W,1,00,,448.0,M,0.0,M,,0000*58
$GPRMC,102751.000,A,4803.9491,N,00147.1339,W,095.01,0.0,151020,,,E*42
$GPGGA,102752.000,4803.9301,N,00147.1062,W,1,00,,448.8,M,0.0,M,,0000*50
$GPRMC,102752.000,A,4803.9301,N,00147.1062,W,095.33,0.0,151020,,,E*43
$GPGGA,102753.000,4803.9114,N,00147.0784,W,1,00,,448.7,M,0.0,M,,0000*56
$GPRMC,102753.000,A,4803.9114,N,00147.0784,W,095.97,0.0,151020,,,E*44
$GPGGA,102754.000,4803.8926,N,00147.0501,W,1,00,,448.5,M,0.0,M,,0000*54
$GPRMC,102754.000,A,4803.8926,N,00147.0501,W,096.13,0.0,151020,,,E*4B
$GPGGA,102755.000,4803.8736,N,00147.0217,W,1,00,,449.8,M,0.0,M,,0000*56
$GPRMC,102755.000,A,4803.8736,N,00147.0217,W,095.83,0.0,151020,,,E*4F
$GPGGA,102756.000,4803.8551,N,00146.9934,W,1,00,,451.2,M,0.0,M,,0000*57
$GPRMC,102756.000,A,4803.8551,N,00146.9934,W,095.32,0.0,151020,,,E*47
$GPGGA,102757.000,4803.8363,N,00146.9651,W,1,00,,452.5,M,0.0,M,,0000*59
$GPRMC,102757.000,A,4803.8363,N,00146.9651,W,094.96,0.0,151020,,,E*42
$GPGGA,102758.000,4803.8180,N,00146.9371,W,1,00,,453.3,M,0.0,M,,0000*59
$GPRMC,102758.000,A,4803.8180,N,00146.9371,W,094.78,0.0,151020,,,E*45
$GPGGA,102759.000,4803.7992,N,00146.9094,W,1,00,,454.0,M,0.0,M,,0000*50
$GPRMC,102759.000,A,4803.7992,N,00146.9094,W,094.51,0.0,151020,,,E*43
$GPGGA,102800.000,4803.7804,N,00146.8819,W,1,00,,454.3,M,0.0,M,,0000*52
$GPRMC,102800.000,A,4803.7804,N,00146.8819,W,094.38,0.0,151020,,,E*4D
$GPGGA,102801.000,4803.7617,N,00146.8544,W,1,00,,454.1,M,0.0,M,,0000*58
$GPRMC,102801.000,A,4803.7617,N,00146.8544,W,094.55,0.0,151020,,,E*4E
$GPGGA,102802.000,4803.7429,N,00146.8269,W,1,00,,453.4,M,0.0,M,,0000*5E
$GPRMC,102802.000,A,4803.7429,N,00146.8269,W,095.02,0.0,151020,,,E*49
$GPGGA,102803.000,4803.7241,N,00146.7993,W,1,00,,452.4,M,0.0,M,,0000*57
$GPRMC,102803.000,A,4803.7241,N,00146.7993,W,095.27,0.0,151020,,,E*46
$GPGGA,102804.000,4803.7051,N,00146.7716,W,1,00,,452.1,M,0.0,M,,0000*55
$GPRMC,102804.000,A,4803.7051,N,00146.7716,W,094.71,0.0,151020,,,E*43
$GPGGA,102805.000,4803.6866,N,00146.7439,W,1,00,,451.9,M,0.0,M,,0000*5C
$GPRMC,102805.000,A,4803.6866,N,00146.7439,W,094.30,0.0,151020,,,E*44
$GPGGA,102806.000,4803.6678,N,00146.7162,W,1,00,,451.4,M,0.0,M,,0000*58
$GPRMC,102806.000,A,4803.6678,N,00146.7162,W,094.15,0.0,151020,,,E*4A
$GPGGA,102807.000,4803.6495,N,00146.6887,W,1,00,,450.6,M,0.0,M,,0000*58
$GPRMC,102807.000,A,4803.6495,N,00146.6887,W,094.31,0.0,151020,,,E*4F
$GPGGA,102808.000,4803.6305,N,00146.6613,W,1,00,,449.6,M,0.0,M,,0000*52
$GPRMC,102808.000,A,4803.6305,N,00146.6613,W,094.52,0.0,151020,,,E*48
$GPGGA,102809.000,4803.6120,N,00146.6339,W,1,00,,448.8,M,0.0,M,,0000*54
$GPRMC,102809.000,A,4803.6120,N,00146.6339,W,094.53,0.0,151020,,,E*40
$GPGGA,102810.000,4803.5932,N,00146.6064,W,1,00,,448.4,M,0.0,M,,0000*53
$GPRMC,102810.000,A,4803.5932,N,00146.6064,W,094.47,0.0,151020,,,E*4E
$GPGGA,102811.000,4803.5744,N,00146.5787,W,1,00,,448.1,M,0.0,M,,0000*51
$GPRMC,102811.000,A,4803.5744,N,00146.5787,W,094.69,0.0,151020,,,E*45
$GPGGA,102812.000,4803.5559,N,00146.5508,W,1,00,,448.1,M,0.0,M,,0000*59
$GPRMC,102812.000,A,4803.5559,N,00146.5508,W,094.91,0.0,151020,,,E*4A
$GPGGA,102813.000,4803.5371,N,00146.5229,W,1,00,,448.0,M,0.0,M,,0000*51
$GPRMC,102813.000,A,4803.5371,N,00146.5229,W,095.32,0.0,151020,,,E*4B
$GPGGA,102814.000,4803.5184,N,00146.4949,W,1,00,,447.8,M,0.0,M,,0000*55
$GPRMC,102814.000,A,4803.5184,N,00146.4949,W,095.82,0.0,151020,,,E*43
$GPGGA,102815.000,4803.4996,N,00146.4670,W,1,00,,447.4,M,0.0,M,,0000*57
$GPRMC,102815.000,A,4803.4996,N,00146.4670,W,096.19,0.0,151020,,,E*4C
$GPGGA,102816.000,4803.4801,N,00146.4391,W,1,00,,446.7,M,0.0,M,,0000*53
$GPRMC,102816.000,A,4803.4801,N,00146.4391,W,096.61,0.0,151020,,,E*45
$GPGGA,102817.000,4803.4609,N,00146.4112,W,1,00,,445.6,M,0.0,M,,0000*5F
$GPRMC,102817.000,A,4803.4609,N,00146.4112,W,096.97,0.0,151020,,,E*42
$GPGGA,102818.000,4803.4417,N,00146.3830,W,1,00,,444.3,M,0.0,M,,0000*57
$GPRMC,102818.000,A,4803.4417,N,00146.3830,W,097.12,0.0,151020,,,E*42
$GPGGA,102819.000,4803.4227,N,00146.3545,W,1,00,,442.5,M,0.0,M,,0000*5C
$GPRMC,102819.000,A,4803.4227,N,00146.3545,W,097.27,0.0,151020,,,E*4F
$GPGGA,102820.000,4803.4037,N,00146.3257,W,1,00,,440.5,M,0.0,M,,0000*53
$GPRMC,102820.000,A,4803.4037,N,00146.3257,W,097.47,0.0,151020,,,E*44
$GPGGA,102821.000,4803.3852,N,00146.2964,W,1,00,,439.4,M,0.0,M,,0000*5B
$GPRMC,102821.000,A,4803.3852,N,00146.2964,W,097.28,0.0,151020,,,E*4A
$GPGGA,102822.000,4803.3669,N,00146.2669,W,1,00,,438.9,M,0.0,M,,0000*50
$GPRMC,102822.000,A,4803.3669,N,00146.2669,W,096.28,0.0,151020,,,E*4C
$GPGGA,102823.000,4803.3490,N,00146.2375,W,1,00,,439.2,M,0.0,M,,0000*57
$GPRMC,102823.000,A,4803.3490,N,00146.2375,W,095.35,0.0,151020,,,E*4E
$GPGGA,102824.000,4803.3311,N,00146.2085,W,1,00,,440.1,M,0.0,M,,0000*5F
$GPRMC,102824.000,A,4803.3311,N,00146.2085,W,094.41,0.0,151020,,,E*49
$GPGGA,102825.000,4803.3133,N,00146.1797,W,1,00,,441.6,M,0.0,M,,0000*5D
$GPRMC,102825.000,A,4803.3133,N,00146.1797,W,093.50,0.0,151020,,,E*4A
$GPGGA,102826.000,4803.2959,N,00146.1513,W,1,00,,443.1,M,0.0,M,,0000*50
$GPRMC,102826.000,A,4803.2959,N,00146.1513,W,092.97,0.0,151020,,,E*48
$GPGGA,102827.000,4803.2783,N,00146.1230,W,1,00,,443.5,M,0.0,M,,0000*5A
$GPRMC,102827.000,A,4803.2783,N,00146.1230,W,093.05,0.0,151020,,,E*4C
$GPGGA,102828.000,4803.2609,N,00146.0948,W,1,00,,443.4,M,0.0,M,,0000*52
$GPRMC,102828.000,A,4803.2609,N,00146.0948,W,093.28,0.0,151020,,,E*4A
$GPGGA,102829.000,4803.2430,N,00146.0665,W,1,00,,443.1,M,0.0,M,,0000*5E
$GPRMC,102829.000,A,4803.2430,N,00146.0665,W,093.47,0.0,151020,,,E*4A
$GPGGA,102830.000,4803.2256,N,00146.0380,W,1,00,,442.3,M,0.0,M,,0000*5D
$GPRMC,102830.000,A,4803.2256,N,00146.0380,W,093.92,0.0,151020,,,E*42
$GPGGA,102831.000,4803.2080,N,00146.0090,W,1,00,,441.0,M,0.0,M,,0000*57
$GPRMC,102831.000,A,4803.2080,N,00146.0090,W,094.26,0.0,151020,,,E*40
$GPGGA,102832.000,4803.1906,N,00145.9796,W,1,00,,439.6,M,0.0,M,,0000*52
$GPRMC,102832.000,A,4803.1906,N,00145.9796,W,094.44,0.0,151020,,,E*48
$GPGGA,102833.000,4803.1739,N,00145.9496,W,1,00,,438.4,M,0.0,M,,0000*51
$GPRMC,102833.000,A,4803.1739,N,00145.9496,W,094.38,0.0,151020,,,E*43
$GPGGA,102834.000,4803.1572,N,00145.9194,W,1,00,,437.8,M,0.0,M,,0000*5F
$GPRMC,102834.000,A,4803.1572,N,00145.9194,W,093.93,0.0,151020,,,E*48
$GPGGA,102835.000,4803.1412,N,00145.8890,W,1,00,,437.4,M,0.0,M,,0000*59
$GPRMC,102835.000,A,4803.1412,N,00145.8890,W,093.28,0.0,151020,,,E*42
$GPGGA,102836.000,4803.1254,N,00145.8586,W,1,00,,437.4,M,0.0,M,,0000*54
$GPRMC,102836.000,A,4803.1254,N,00145.8586,W,092.44,0.0,151020,,,E*44
$GPGGA,102837.000,4803.1098,N,00145.8285,W,1,00,,437.9,M,0.0,M,,0000*5E
$GPRMC,102837.000,A,4803.1098,N,00145.8285,W,091.41,0.0,151020,,,E*45
$GPGGA,102838.000,4803.0945,N,00145.7985,W,1,00,,438.2,M,0.0,M,,0000*59
$GPRMC,102838.000,A,4803.0945,N,00145.7985,W,090.48,0.0,151020,,,E*4E
$GPGGA,102839.000,4803.0794,N,00145.7688,W,1,00,,438.4,M,0.0,M,,0000*5E
$GPRMC,102839.000,A,4803.0794,N,00145.7688,W,089.58,0.0,151020,,,E*46
$GPGGA,102840.000,4803.0645,N,00145.7387,W,1,00,,438.2,M,0.0,M,,0000*51
$GPRMC,102840.000,A,4803.0645,N,00145.7387,W,090.37,0.0,151020,,,E*4E
$GPGGA,102841.000,4803.0492,N,00145.7087,W,1,00,,438.4,M,0.0,M,,0000*5D
$GPRMC,102841.000,A,4803.0492,N,00145.7087,W,090.40,0.0,151020,,,E*44
$GPGGA,102842.000,4803.0343,N,00145.6789,W,1,00,,438.8,M,0.0,M,,0000*51
$GPRMC,102842.000,A,4803.0343,N,00145.6789,W,088.99,0.0,151020,,,E*49
$GPGGA,102843.000,4803.0217,N,00145.6485,W,1,00,,440.1,M,0.0,M,,0000*59
$GPRMC,102843.000,A,4803.0217,N,00145.6485,W,086.90,0.0,151020,,,E*40
$GPGGA,102844.000,4803.0105,N,00145.6174,W,1,00,,440.2,M,0.0,M,,0000*56
$GPRMC,102844.000,A,4803.0105,N,00145.6174,W,086.37,0.0,151020,,,E*41
$GPGGA,102845.000,4803.0002,N,00145.5858,W,1,00,,439.6,M,0.0,M,,0000*5F
$GPRMC,102845.000,A,4803.0002,N,00145.5858,W,085.61,0.0,151020,,,E*42
$GPGGA,102846.000,4802.9899,N,00145.5541,W,1,00,,439.9,M,0.0,M,,0000*54
$GPRMC,102846.000,A,4802.9899,N,00145.5541,W,084.84,0.0,151020,,,E*4C
$GPGGA,102848.000,4802.9693,N,00145.4910,W,1,00,,439.5,M,0.0,M,,0000*5B
$GPRMC,102848.000,A,4802.9693,N,00145.4910,W,085.27,0.0,151020,,,E*47
$GPGGA,102849.000,4802.9604,N,00145.4596,W,1,00,,437.9,M,0.0,M,,0000*54
$GPRMC,102849.000,A,4802.9604,N,00145.4596,W,084.89,0.0,151020,,,E*4F
$GPGGA,102850.000,4802.9519,N,00145.4282,W,1,00,,435.9,M,0.0,M,,0000*53
$GPRMC,102850.000,A,4802.9519,N,00145.4282,W,084.76,0.0,151020,,,E*4A
$GPGGA,102851.000,4802.9439,N,00145.3956,W,1,00,,433.5,M,0.0,M,,0000*5E
$GPRMC,102851.000,A,4802.9439,N,00145.3956,W,084.86,0.0,151020,,,E*42
$GPGGA,102852.000,4802.9359,N,00145.3629,W,1,00,,430.4,M,0.0,M,,0000*59
$GPRMC,102852.000,A,4802.9359,N,00145.3629,W,084.91,0.0,151020,,,E*41
$GPGGA,102853.000,4802.9288,N,00145.3316,W,1,00,,425.4,M,0.0,M,,0000*58
$GPRMC,102853.000,A,4802.9288,N,00145.3316,W,084.00,0.0,151020,,,E*4C
$GPGGA,102854.000,4802.9221,N,00145.3002,W,1,00,,420.0,M,0.0,M,,0000*5B
$GPRMC,102854.000,A,4802.9221,N,00145.3002,W,082.29,0.0,151020,,,E*43
$GPGGA,102855.000,4802.9155,N,00145.2694,W,1,00,,415.3,M,0.0,M,,0000*57
$GPRMC,102855.000,A,4802.9155,N,00145.2694,W,081.39,0.0,151020,,,E*48
$GPGGA,102856.000,4802.9091,N,00145.2382,W,1,00,,411.9,M,0.0,M,,0000*51
$GPRMC,102856.000,A,4802.9091,N,00145.2382,W,080.34,0.0,151020,,,E*4C
$GPGGA,102857.000,4802.9034,N,00145.2069,W,1,00,,409.0,M,0.0,M,,0000*59
$GPRMC,102857.000,A,4802.9034,N,00145.2069,W,079.06,0.0,151020,,,E*43
$GPGGA,102858.000,4802.8983,N,00145.1759,W,1,00,,406.4,M,0.0,M,,0000*5E
$GPRMC,102858.000,A,4802.8983,N,00145.1759,W,077.47,0.0,151020,,,E*44
$GPGGA,102859.000,4802.8947,N,00145.1452,W,1,00,,404.2,M,0.0,M,,0000*5B
$GPRMC,102859.000,A,4802.8947,N,00145.1452,W,075.18,0.0,151020,,,E*4D
$GPGGA,102900.000,4802.8919,N,00145.1152,W,1,00,,402.7,M,0.0,M,,0000*5B
$GPRMC,102900.000,A,4802.8919,N,00145.1152,W,072.86,0.0,151020,,,E*4E
$GPGGA,102901.000,4802.8905,N,00145.0857,W,1,00,,399.7,M,0.0,M,,0000*5F
$GPRMC,102901.000,A,4802.8905,N,00145.0857,W,071.18,0.0,151020,,,E*4B
$GPGGA,102902.000,4802.8894,N,00145.0565,W,1,00,,396.5,M,0.0,M,,0000*54
$GPRMC,102902.000,A,4802.8894,N,00145.0565,W,070.93,0.0,151020,,,E*4F
$GPGGA,102903.000,4802.8892,N,00145.0272,W,1,00,,393.0,M,0.0,M,,0000*52
$GPRMC,102903.000,A,4802.8892,N,00145.0272,W,071.33,0.0,151020,,,E*42
$GPGGA,102904.000,4802.8889,N,00144.9977,W,1,00,,389.0,M,0.0,M,,0000*52
$GPRMC,102904.000,A,4802.8889,N,00144.9977,W,071.88,0.0,151020,,,E*49
$GPGGA,102905.000,4802.8889,N,00144.9677,W,1,00,,384.3,M,0.0,M,,0000*52
$GPRMC,102905.000,A,4802.8889,N,00144.9677,W,073.20,0.0,151020,,,E*47
$GPGGA,102906.000,4802.8892,N,00144.9372,W,1,00,,378.8,M,0.0,M,,0000*53
$GPRMC,102906.000,A,4802.8892,N,00144.9372,W,074.70,0.0,151020,,,E*4C
$GPGGA,102907.000,4802.8896,N,00144.9059,W,1,00,,372.7,M,0.0,M,,0000*59
$GPRMC,102907.000,A,4802.8896,N,00144.9059,W,076.40,0.0,151020,,,E*42
$GPGGA,102908.000,4802.8903,N,00144.8740,W,1,00,,365.5,M,0.0,M,,0000*51
$GPRMC,102908.000,A,4802.8903,N,00144.8740,W,077.85,0.0,151020,,,E*46
$GPGGA,102909.000,4802.8912,N,00144.8418,W,1,00,,357.5,M,0.0,M,,0000*5F
$GPRMC,102909.000,A,4802.8912,N,00144.8418,W,078.34,0.0,151020,,,E*4C
$GPGGA,102910.000,4802.8928,N,00144.8095,W,1,00,,351.9,M,0.0,M,,0000*55
$GPRMC,102910.000,A,4802.8928,N,00144.8095,W,078.03,0.0,151020,,,E*48
$GPGGA,102911.000,4802.8947,N,00144.7774,W,1,00,,346.6,M,0.0,M,,0000*53
$GPRMC,102911.000,A,4802.8947,N,00144.7774,W,077.85,0.0,151020,,,E*46
$GPGGA,102912.000,4802.8970,N,00144.7454,W,1,00,,341.2,M,0.0,M,,0000*56
$GPRMC,102912.000,A,4802.8970,N,00144.7454,W,077.62,0.0,151020,,,E*49
$GPGGA,102913.000,4802.8992,N,00144.7135,W,1,00,,335.7,M,0.0,M,,0000*5F
$GPRMC,102913.000,A,4802.8992,N,00144.7135,W,077.33,0.0,151020,,,E*42
$GPGGA,102914.000,4802.9022,N,00144.6819,W,1,00,,330.2,M,0.0,M,,0000*5D
$GPRMC,102914.000,A,4802.9022,N,00144.6819,W,076.77,0.0,151020,,,E*41
$GPGGA,102915.000,4802.9057,N,00144.6507,W,1,00,,324.9,M,0.0,M,,0000*52
$GPRMC,102915.000,A,4802.9057,N,00144.6507,W,076.29,0.0,151020,,,E*4B
$GPGGA,102916.000,4802.9095,N,00144.6197,W,1,00,,319.7,M,0.0,M,,0000*52
$GPRMC,102916.000,A,4802.9095,N,00144.6197,W,076.05,0.0,151020,,,E*45
$GPGGA,102917.000,4802.9137,N,00144.5888,W,1,00,,314.7,M,0.0,M,,0000*53
$GPRMC,102917.000,A,4802.9137,N,00144.5888,W,075.86,0.0,151020,,,E*41
$GPGGA,102918.000,4802.9180,N,00144.5581,W,1,00,,310.1,M,0.0,M,,0000*56
$GPRMC,102918.000,A,4802.9180,N,00144.5581,W,075.72,0.0,151020,,,E*4D
$GPGGA,102919.000,4802.9226,N,00144.5275,W,1,00,,305.8,M,0.0,M,,0000*59
$GPRMC,102919.000,A,4802.9226,N,00144.5275,W,075.54,0.0,151020,,,E*4B
$GPGGA,102920.000,4802.9274,N,00144.4972,W,1,00,,301.7,M,0.0,M,,0000*52
$GPRMC,102920.000,A,4802.9274,N,00144.4972,W,075.18,0.0,151020,,,E*43
$GPGGA,102921.000,4802.9322,N,00144.4670,W,1,00,,297.7,M,0.0,M,,0000*52
$GPRMC,102921.000,A,4802.9322,N,00144.4670,W,074.87,0.0,151020,,,E*4A
$GPGGA,102922.000,4802.9375,N,00144.4371,W,1,00,,293.5,M,0.0,M,,0000*51
$GPRMC,102922.000,A,4802.9375,N,00144.4371,W,074.44,0.0,151020,,,E*40
$GPGGA,102923.000,4802.9430,N,00144.4073,W,1,00,,289.1,M,0.0,M,,0000*58
$GPRMC,102923.000,A,4802.9430,N,00144.4073,W,074.28,0.0,151020,,,E*4C
$GPGGA,102924.000,4802.9485,N,00144.3776,W,1,00,,284.5,M,0.0,M,,0000*5D
$GPRMC,102924.000,A,4802.9485,N,00144.3776,W,074.31,0.0,151020,,,E*48
$GPGGA,102925.000,4802.9537,N,00144.3478,W,1,00,,279.5,M,0.0,M,,0000*5B
$GPRMC,102925.000,A,4802.9537,N,00144.3478,W,074.51,0.0,151020,,,E*4A
$GPGGA,102926.000,4802.9588,N,00144.3178,W,1,00,,274.3,M,0.0,M,,0000*52
$GPRMC,102926.000,A,4802.9588,N,00144.3178,W,075.00,0.0,151020,,,E*4D
$GPGGA,102927.000,4802.9636,N,00144.2874,W,1,00,,269.0,M,0.0,M,,0000*5E
$GPRMC,102927.000,A,4802.9636,N,00144.2874,W,075.39,0.0,151020,,,E*44
$GPGGA,102928.000,4802.9681,N,00144.2569,W,1,00,,264.4,M,0.0,M,,0000*55
$GPRMC,102928.000,A,4802.9681,N,00144.2569,W,075.57,0.0,151020,,,E*4E
$GPGGA,102929.000,4802.9729,N,00144.2265,W,1,00,,260.1,M,0.0,M,,0000*5D
$GPRMC,102929.000,A,4802.9729,N,00144.2265,W,075.13,0.0,151020,,,E*47
$GPGGA,102930.000,4802.9778,N,00144.1965,W,1,00,,256.2,M,0.0,M,,0000*5F
$GPRMC,102930.000,A,4802.9778,N,00144.1965,W,074.33,0.0,151020,,,E*40
$GPGGA,102931.000,4802.9830,N,00144.1669,W,1,00,,252.4,M,0.0,M,,0000*5C
$GPRMC,102931.000,A,4802.9830,N,00144.1669,W,073.72,0.0,151020,,,E*43
$GPGGA,102932.000,4802.9887,N,00144.1376,W,1,00,,248.4,M,0.0,M,,0000*53
$GPRMC,102932.000,A,4802.9887,N,00144.1376,W,073.16,0.0,151020,,,E*45
$GPGGA,102933.000,4802.9945,N,00144.1086,W,1,00,,244.3,M,0.0,M,,0000*5A
$GPRMC,102933.000,A,4802.9945,N,00144.1086,W,072.83,0.0,151020,,,E*4A
$GPGGA,102934.000,4803.0002,N,00144.0797,W,1,00,,240.3,M,0.0,M,,0000*5D
$GPRMC,102934.000,A,4803.0002,N,00144.0797,W,072.73,0.0,151020,,,E*46
$GPGGA,102935.000,4803.0066,N,00144.0512,W,1,00,,236.3,M,0.0,M,,0000*50
$GPRMC,102935.000,A,4803.0066,N,00144.0512,W,072.48,0.0,151020,,,E*42
$GPGGA,102936.000,4803.0139,N,00144.0234,W,1,00,,232.2,M,0.0,M,,0000*5E
$GPRMC,102936.000,A,4803.0139,N,00144.0234,W,072.02,0.0,151020,,,E*47
$GPGGA,102937.000,4803.0222,N,00143.9966,W,1,00,,228.5,M,0.0,M,,0000*58
$GPRMC,102937.000,A,4803.0222,N,00143.9966,W,071.25,0.0,151020,,,E*4B
$GPGGA,102938.000,4803.0320,N,00143.9711,W,1,00,,225.1,M,0.0,M,,0000*53
$GPRMC,102938.000,A,4803.0320,N,00143.9711,W,070.30,0.0,151020,,,E*4C
$GPGGA,102939.000,4803.0428,N,00143.9471,W,1,00,,221.8,M,0.0,M,,0000*55
$GPRMC,102939.000,A,4803.0428,N,00143.9471,W,069.25,0.0,151020,,,E*4B
$GPGGA,102940.000,4803.0547,N,00143.9248,W,1,00,,218.4,M,0.0,M,,0000*59
$GPRMC,102940.000,A,4803.0547,N,00143.9248,W,068.12,0.0,151020,,,E*44
$GPGGA,102941.000,4803.0675,N,00143.9043,W,1,00,,214.6,M,0.0,M,,0000*5D
$GPRMC,102941.000,A,4803.0675,N,00143.9043,W,067.10,0.0,151020,,,E*43
$GPGGA,102942.000,4803.0810,N,00143.8854,W,1,00,,210.5,M,0.0,M,,0000*5B
$GPRMC,102942.000,A,4803.0810,N,00143.8854,W,066.81,0.0,151020,,,E*4B
$GPGGA,102943.000,4803.0952,N,00143.8672,W,1,00,,206.5,M,0.0,M,,0000*50
$GPRMC,102943.000,A,4803.0952,N,00143.8672,W,066.93,0.0,151020,,,E*44
$GPGGA,102945.000,4803.1274,N,00143.8402,W,1,00,,198.9,M,0.0,M,,0000*55
$GPRMC,102945.000,A,4803.1274,N,00143.8402,W,066.26,0.0,151020,,,E*47
$GPGGA,102946.000,4803.1455,N,00143.8302,W,1,00,,194.2,M,0.0,M,,0000*53
$GPRMC,102946.000,A,4803.1455,N,00143.8302,W,067.54,0.0,151020,,,E*42
$GPGGA,102947.000,4803.1638,N,00143.8212,W,1,00,,189.1,M,0.0,M,,0000*54
$GPRMC,102947.000,A,4803.1638,N,00143.8212,W,066.95,0.0,151020,,,E*46
$GPGGA,102948.000,4803.1828,N,00143.8137,W,1,00,,183.2,M,0.0,M,,0000*59
$GPRMC,102948.000,A,4803.1828,N,00143.8137,W,070.40,0.0,151020,,,E*4D
$GPGGA,102949.000,4803.2027,N,00143.8076,W,1,00,,177.7,M,0.0,M,,0000*56
$GPRMC,102949.000,A,4803.2027,N,00143.8076,W,071.91,0.0,151020,,,E*41
$GPGGA,102950.000,4803.2229,N,00143.8028,W,1,00,,172.5,M,0.0,M,,0000*5E
$GPRMC,102950.000,A,4803.2229,N,00143.8028,W,072.57,0.0,151020,,,E*47
$GPGGA,102951.000,4803.2430,N,00143.7984,W,1,00,,167.9,M,0.0,M,,0000*59
$GPRMC,102951.000,A,4803.2430,N,00143.7984,W,073.04,0.0,151020,,,E*4F
$GPGGA,102952.000,4803.2632,N,00143.7953,W,1,00,,163.2,M,0.0,M,,0000*5F
$GPRMC,102952.000,A,4803.2632,N,00143.7953,W,073.26,0.0,151020,,,E*46
$GPGGA,102953.000,4803.2845,N,00143.7946,W,1,00,,158.1,M,0.0,M,,0000*5F
$GPRMC,102953.000,A,4803.2845,N,00143.7946,W,074.72,0.0,151020,,,E*4B
$GPGGA,102954.000,4803.3055,N,00143.7942,W,1,00,,153.7,M,0.0,M,,0000*59
$GPRMC,102954.000,A,4803.3055,N,00143.7942,W,074.19,0.0,151020,,,E*4D
$GPGGA,102955.000,4803.3261,N,00143.7943,W,1,00,,150.0,M,0.0,M,,0000*58
$GPRMC,102955.000,A,4803.3261,N,00143.7943,W,072.86,0.0,151020,,,E*48
$GPGGA,102956.000,4803.3465,N,00143.7947,W,1,00,,145.3,M,0.0,M,,0000*5A
$GPRMC,102956.000,A,4803.3465,N,00143.7947,W,072.06,0.0,151020,,,E*45
$GPGGA,102957.000,4803.3666,N,00143.7950,W,1,00,,140.2,M,0.0,M,,0000*58
$GPRMC,102957.000,A,4803.3666,N,00143.7950,W,071.62,0.0,151020,,,E*42
$GPGGA,102958.000,4803.3870,N,00143.7953,W,1,00,,134.9,M,0.0,M,,0000*55
$GPRMC,102958.000,A,4803.3870,N,00143.7953,W,071.87,0.0,151020,,,E*4C
$GPGGA,102959.000,4803.4074,N,00143.7957,W,1,00,,129.3,M,0.0,M,,0000*5D
$GPRMC,102959.000,A,4803.4074,N,00143.7957,W,072.71,0.0,151020,,,E*48
$GPGGA,103000.000,4803.4275,N,00143.7962,W,1,00,,124.1,M,0.0,M,,0000*53
$GPRMC,103000.000,A,4803.4275,N,00143.7962,W,073.24,0.0,151020,,,E*48
$GPGGA,103001.000,4803.4481,N,00143.7969,W,1,00,,119.0,M,0.0,M,,0000*5B
$GPRMC,103001.000,A,4803.4481,N,00143.7969,W,073.42,0.0,151020,,,E*4F
$GPGGA,103002.000,4803.4687,N,00143.7977,W,1,00,,113.9,M,0.0,M,,0000*50
$GPRMC,103002.000,A,4803.4687,N,00143.7977,W,073.68,0.0,151020,,,E*4F
$GPGGA,103003.000,4803.4893,N,00143.7986,W,1,00,,108.9,M,0.0,M,,0000*5E
$GPRMC,103003.000,A,4803.4893,N,00143.7986,W,073.48,0.0,151020,,,E*49
$GPGGA,103004.000,4803.5094,N,00143.8000,W,1,00,,104.6,M,0.0,M,,0000*5C
$GPRMC,103004.000,A,4803.5094,N,00143.8000,W,073.19,0.0,151020,,,E*4C
$GPGGA,103005.000,4803.5298,N,00143.8017,W,1,00,,100.8,M,0.0,M,,0000*5F
$GPRMC,103005.000,A,4803.5298,N,00143.8017,W,072.79,0.0,151020,,,E*42
$GPGGA,103006.000,4803.5502,N,00143.8038,W,1,00,,97.2,M,0.0,M,,0000*60
$GPRMC,103006.000,A,4803.5502,N,00143.8038,W,072.03,0.0,151020,,,E*45
$GPGGA,103007.000,4803.5699,N,00143.8063,W,1,00,,93.7,M,0.0,M,,0000*6F
$GPRMC,103007.000,A,4803.5699,N,00143.8063,W,071.46,0.0,151020,,,E*49
$GPGGA,103008.000,4803.5896,N,00143.8097,W,1,00,,90.1,M,0.0,M,,0000*6F
$GPRMC,103008.000,A,4803.5896,N,00143.8097,W,071.15,0.0,151020,,,E*4A
$GPGGA,103009.000,4803.6090,N,00143.8143,W,1,00,,86.6,M,0.0,M,,0000*6B
$GPRMC,103009.000,A,4803.6090,N,00143.8143,W,070.73,0.0,151020,,,E*4F
$GPGGA,103010.000,4803.6285,N,00143.8204,W,1,00,,82.9,M,0.0,M,,0000*6E
$GPRMC,103010.000,A,4803.6285,N,00143.8204,W,070.35,0.0,151020,,,E*43
$GPGGA,103011.000,4803.6472,N,00143.8282,W,1,00,,78.8,M,0.0,M,,0000*6B
$GPRMC,103011.000,A,4803.6472,N,00143.8282,W,070.21,0.0,151020,,,E*47
$GPGGA,103012.000,4803.6658,N,00143.8378,W,1,00,,74.9,M,0.0,M,,0000*6B
$GPRMC,103012.000,A,4803.6658,N,00143.8378,W,070.18,0.0,151020,,,E*40
$GPGGA,103013.000,4803.6834,N,00143.8493,W,1,00,,70.6,M,0.0,M,,0000*67
$GPRMC,103013.000,A,4803.6834,N,00143.8493,W,069.94,0.0,151020,,,E*4B
$GPGGA,103014.000,4803.7010,N,00143.8624,W,1,00,,66.2,M,0.0,M,,0000*62
$GPRMC,103014.000,A,4803.7010,N,00143.8624,W,069.82,0.0,151020,,,E*4A
$GPGGA,103015.000,4803.7177,N,00143.8766,W,1,00,,61.8,M,0.0,M,,0000*69
$GPRMC,103015.000,A,4803.7177,N,00143.8766,W,069.43,0.0,151020,,,E*41
$GPGGA,103016.000,4803.7342,N,00143.8918,W,1,00,,57.6,M,0.0,M,,0000*62
$GPRMC,103016.000,A,4803.7342,N,00143.8918,W,069.37,0.0,151020,,,E*42
$GPGGA,103017.000,4803.7502,N,00143.9077,W,1,00,,53.7,M,0.0,M,,0000*65
$GPRMC,103017.000,A,4803.7502,N,00143.9077,W,069.30,0.0,151020,,,E*47
$GPGGA,103018.000,4803.7663,N,00143.9237,W,1,00,,50.1,M,0.0,M,,0000*6D
$GPRMC,103018.000,A,4803.7663,N,00143.9237,W,068.64,0.0,151020,,,E*4A
$GPGGA,103019.000,4803.7820,N,00143.9396,W,1,00,,47.0,M,0.0,M,,0000*68
$GPRMC,103019.000,A,4803.7820,N,00143.9396,W,067.61,0.0,151020,,,E*42
$GPGGA,103020.000,4803.7971,N,00143.9557,W,1,00,,44.2,M,0.0,M,,0000*6D
$GPRMC,103020.000,A,4803.7971,N,00143.9557,W,066.53,0.0,151020,,,E*46
$GPGGA,103021.000,4803.8118,N,00143.9723,W,1,00,,41.3,M,0.0,M,,0000*61
$GPRMC,103021.000,A,4803.8118,N,00143.9723,W,065.48,0.0,151020,,,E*47
$GPGGA,103022.000,4803.8260,N,00143.9893,W,1,00,,38.6,M,0.0,M,,0000*61
$GPRMC,103022.000,A,4803.8260,N,00143.9893,W,064.72,0.0,151020,,,E*44
$GPGGA,103023.000,4803.8397,N,00144.0063,W,1,00,,36.3,M,0.0,M,,0000*6B
$GPRMC,103023.000,A,4803.8397,N,00144.0063,W,063.46,0.0,151020,,,E*45
$GPGGA,103024.000,4803.8532,N,00144.0227,W,1,00,,34.6,M,0.0,M,,0000*60
$GPRMC,103024.000,A,4803.8532,N,00144.0227,W,061.87,0.0,151020,,,E*46
$GPGGA,103025.000,4803.8665,N,00144.0383,W,1,00,,33.1,M,0.0,M,,0000*6F
$GPRMC,103025.000,A,4803.8665,N,00144.0383,W,060.39,0.0,151020,,,E*4D
$GPGGA,103026.000,4803.8793,N,00144.0533,W,1,00,,32.0,M,0.0,M,,0000*69
$GPRMC,103026.000,A,4803.8793,N,00144.0533,W,057.84,0.0,151020,,,E*49
$GPGGA,103027.000,4803.8917,N,00144.0678,W,1,00,,31.4,M,0.0,M,,0000*61
$GPRMC,103027.000,A,4803.8917,N,00144.0678,W,055.87,0.0,151020,,,E*47
$GPGGA,103028.000,4803.9036,N,00144.0819,W,1,00,,30.8,M,0.0,M,,0000*61
$GPRMC,103028.000,A,4803.9036,N,00144.0819,W,054.30,0.0,151020,,,E*47
$GPGGA,103029.000,4803.9153,N,00144.0957,W,1,00,,30.6,M,0.0,M,,0000*67
$GPRMC,103029.000,A,4803.9153,N,00144.0957,W,052.81,0.0,151020,,,E*43
$GPGGA,103030.000,4803.9265,N,00144.1090,W,1,00,,30.6,M,0.0,M,,0000*6A
$GPRMC,103030.000,A,4803.9265,N,00144.1090,W,050.92,0.0,151020,,,E*4E
$GPGGA,103031.000,4803.9372,N,00144.1219,W,1,00,,30.8,M,0.0,M,,0000*61
$GPRMC,103031.000,A,4803.9372,N,00144.1219,W,049.32,0.0,151020,,,E*49
$GPGGA,103032.000,4803.9478,N,00144.1343,W,1,00,,31.0,M,0.0,M,,0000*68
$GPRMC,103032.000,A,4803.9478,N,00144.1343,W,047.74,0.0,151020,,,E*45
$GPGGA,103033.000,4803.9578,N,00144.1463,W,1,00,,31.2,M,0.0,M,,0000*6F
$GPRMC,103033.000,A,4803.9578,N,00144.1463,W,046.33,0.0,151020,,,E*42
$GPGGA,103034.000,4803.9679,N,00144.1578,W,1,00,,31.4,M,0.0,M,,0000*67
$GPRMC,103034.000,A,4803.9679,N,00144.1578,W,045.03,0.0,151020,,,E*4C
$GPGGA,103035.000,4803.9775,N,00144.1690,W,1,00,,31.6,M,0.0,M,,0000*6C
$GPRMC,103035.000,A,4803.9775,N,00144.1690,W,043.59,0.0,151020,,,E*4C
$GPGGA,103036.000,4803.9869,N,00144.1798,W,1,00,,31.7,M,0.0,M,,0000*65
$GPRMC,103036.000,A,4803.9869,N,00144.1798,W,041.90,0.0,151020,,,E*43
$GPGGA,103037.000,4803.9958,N,00144.1902,W,1,00,,31.9,M,0.0,M,,0000*64
$GPRMC,103037.000,A,4803.9958,N,00144.1902,W,040.19,0.0,151020,,,E*4C
$GPGGA,103038.000,4804.0043,N,00144.2002,W,1,00,,32.1,M,0.0,M,,0000*67
$GPRMC,103038.000,A,4804.0043,N,00144.2002,W,038.74,0.0,151020,,,E*40
$GPGGA,103039.000,4804.0125,N,00144.2099,W,1,00,,32.2,M,0.0,M,,0000*66
$GPRMC,103039.000,A,4804.0125,N,00144.2099,W,037.30,0.0,151020,,,E*4D
$GPGGA,103040.000,4804.0205,N,00144.2192,W,1,00,,32.3,M,0.0,M,,0000*62
$GPRMC,103040.000,A,4804.0205,N,00144.2192,W,036.09,0.0,151020,,,E*43
$GPGGA,103041.000,4804.0281,N,00144.2283,W,1,00,,32.5,M,0.0,M,,0000*6A
$GPRMC,103041.000,A,4804.0281,N,00144.2283,W,034.93,0.0,151020,,,E*4C
$GPGGA,103042.000,4804.0354,N,00144.2372,W,1,00,,32.6,M,0.0,M,,0000*6C
$GPRMC,103042.000,A,4804.0354,N,00144.2372,W,033.81,0.0,151020,,,E*4D
$GPGGA,103043.000,4804.0427,N,00144.2457,W,1,00,,32.7,M,0.0,M,,0000*6F
$GPRMC,103043.000,A,4804.0427,N,00144.2457,W,032.74,0.0,151020,,,E*44
$GPGGA,103044.000,4804.0496,N,00144.2539,W,1,00,,32.9,M,0.0,M,,0000*65
$GPRMC,103044.000,A,4804.0496,N,00144.2539,W,031.68,0.0,151020,,,E*4E
$GPGGA,103045.000,4804.0562,N,00144.2617,W,1,00,,33.0,M,0.0,M,,0000*69
$GPRMC,103045.000,A,4804.0562,N,00144.2617,W,030.48,0.0,151020,,,E*49
$GPGGA,103046.000,4804.0629,N,00144.2693,W,1,00,,33.1,M,0.0,M,,0000*6B
$GPRMC,103046.000,A,4804.0629,N,00144.2693,W,029.02,0.0,151020,,,E*4C
$GPGGA,103047.000,4804.0688,N,00144.2763,W,1,00,,33.2,M,0.0,M,,0000*6C
$GPRMC,103047.000,A,4804.0688,N,00144.2763,W,027.16,0.0,151020,,,E*43
$GPGGA,103048.000,4804.0746,N,00144.2829,W,1,00,,33.2,M,0.0,M,,0000*61
$GPRMC,103048.000,A,4804.0746,N,00144.2829,W,025.32,0.0,151020,,,E*4A
$GPGGA,103049.000,4804.0796,N,00144.2889,W,1,00,,33.2,M,0.0,M,,0000*67
$GPRMC,103049.000,A,4804.0796,N,00144.2889,W,023.29,0.0,151020,,,E*40
$GPGGA,103050.000,4804.0844,N,00144.2941,W,1,00,,33.1,M,0.0,M,,0000*69
