$GPGGA,082710.000,4804.0804,N,00143.8241,W,1,00,,82.9,M,0.0,M,,0000*62
$GPRMC,082710.000,A,4804.0804,N,00143.8241,W,001.10,0.0,161020,,,E*4D
$GPGGA,082749.000,4804.0831,N,00143.8233,W,1,00,,83.2,M,0.0,M,,0000*67
$GPRMC,082749.000,A,4804.0831,N,00143.8233,W,000.22,0.0,161020,,,E*42
$GPGGA,082850.000,4804.0858,N,00143.8209,W,1,00,,79.4,M,0.0,M,,0000*65
$GPRMC,082850.000,A,4804.0858,N,00143.8209,W,000.26,0.0,161020,,,E*47
$GPGGA,083159.000,4804.0790,N,00143.8379,W,1,00,,85.4,M,0.0,M,,0000*6A
$GPRMC,083159.000,A,4804.0790,N,00143.8379,W,004.04,0.0,161020,,,E*4F
$GPGGA,083209.000,4804.1032,N,00143.8464,W,1,00,,89.3,M,0.0,M,,0000*62
$GPRMC,083209.000,A,4804.1032,N,00143.8464,W,006.20,0.0,161020,,,E*48
$GPGGA,083220.000,4804.1478,N,00143.8357,W,1,00,,82.6,M,0.0,M,,0000*6A
$GPRMC,083220.000,A,4804.1478,N,00143.8357,W,008.24,0.0,161020,,,E*44
$GPGGA,083239.000,4804.2113,N,00143.7860,W,1,00,,86.9,M,0.0,M,,0000*62
$GPRMC,083239.000,A,4804.2113,N,00143.7860,W,006.08,0.0,161020,,,E*47
$GPGGA,083250.000,4804.2002,N,00143.7258,W,1,00,,88.7,M,0.0,M,,0000*6D
$GPRMC,083250.000,A,4804.2002,N,00143.7258,W,007.14,0.0,161020,,,E*44
$GPGGA,083309.000,4804.1815,N,00143.6092,W,1,00,,90.4,M,0.0,M,,0000*62
$GPRMC,083309.000,A,4804.1815,N,00143.6092,W,007.04,0.0,161020,,,E*40
$GPGGA,083319.000,4804.1730,N,00143.5479,W,1,00,,100.4,M,0.0,M,,0000*51
$GPRMC,083319.000,A,4804.1730,N,00143.5479,W,007.05,0.0,161020,,,E*4A
$GPGGA,083340.000,4804.1812,N,00143.4640,W,1,00,,87.3,M,0.0,M,,0000*62
$GPRMC,083340.000,A,4804.1812,N,00143.4640,W,004.26,0.0,161020,,,E*42
$GPGGA,083359.000,4804.2056,N,00143.4539,W,1,00,,73.5,M,0.0,M,,0000*61
$GPRMC,083359.000,A,4804.2056,N,00143.4539,W,000.99,0.0,161020,,,E*4C
$GPGGA,083439.000,4804.2028,N,00143.4540,W,1,00,,75.4,M,0.0,M,,0000*60
$GPRMC,083439.000,A,4804.2028,N,00143.4540,W,000.44,0.0,161020,,,E*4A
$GPGGA,083708.000,4804.2106,N,00143.4479,W,1,00,,87.8,M,0.0,M,,0000*66
$GPRMC,083708.000,A,4804.2106,N,00143.4479,W,004.88,0.0,161020,,,E*49
$GPGGA,083719.000,4804.2414,N,00143.4260,W,1,00,,90.2,M,0.0,M,,0000*62
$GPRMC,083719.000,A,4804.2414,N,00143.4260,W,005.48,0.0,161020,,,E*4C
$GPGGA,083729.000,4804.2585,N,00143.4394,W,1,00,,91.7,M,0.0,M,,0000*66
$GPRMC,083729.000,A,4804.2585,N,00143.4394,W,000.90,0.0,161020,,,E*4C
$GPGGA,083740.000,4804.2540,N,00143.4434,W,1,00,,88.8,M,0.0,M,,0000*6A
$GPRMC,083740.000,A,4804.2540,N,00143.4434,W,000.70,0.0,161020,,,E*49
$GPGGA,083809.000,4804.2549,N,00143.4508,W,1,00,,85.6,M,0.0,M,,0000*6C
$GPRMC,083809.000,A,4804.2549,N,00143.4508,W,004.35,0.0,161020,,,E*49
$GPGGA,083819.000,4804.2573,N,00143.4863,W,1,00,,85.1,M,0.0,M,,0000*63
$GPRMC,083819.000,A,4804.2573,N,00143.4863,W,018.44,0.0,161020,,,E*4A
$GPGGA,083829.000,4804.2993,N,00143.8118,W,1,00,,84.3,M,0.0,M,,0000*68
$GPRMC,083829.000,A,4804.2993,N,00143.8118,W,036.85,0.0,161020,,,E*43
$GPGGA,083839.000,4804.3401,N,00144.1247,W,1,00,,120.7,M,0.0,M,,0000*52
$GPRMC,083839.000,A,4804.3401,N,00144.1247,W,039.02,0.0,161020,,,E*42
$GPGGA,083849.000,4804.3791,N,00144.4476,W,1,00,,144.3,M,0.0,M,,0000*58
$GPRMC,083849.000,A,4804.3791,N,00144.4476,W,042.05,0.0,161020,,,E*45
$GPGGA,083859.000,4804.4093,N,00144.7795,W,1,00,,164.6,M,0.0,M,,0000*51
$GPRMC,083859.000,A,4804.4093,N,00144.7795,W,043.08,0.0,161020,,,E*47
$GPGGA,083909.000,4804.4692,N,00145.1359,W,1,00,,197.0,M,0.0,M,,0000*5B
$GPRMC,083909.000,A,4804.4692,N,00145.1359,W,047.97,0.0,161020,,,E*45
$GPGGA,083920.000,4804.5785,N,00145.5452,W,1,00,,233.8,M,0.0,M,,0000*5B
$GPRMC,083920.000,A,4804.5785,N,00145.5452,W,048.07,0.0,161020,,,E*46
$GPGGA,083930.000,4804.7551,N,00145.7685,W,1,00,,265.8,M,0.0,M,,0000*5A
$GPRMC,083930.000,A,4804.7551,N,00145.7685,W,043.44,0.0,161020,,,E*48
$GPGGA,083940.000,4804.9891,N,00145.8475,W,1,00,,314.9,M,0.0,M,,0000*56
$GPRMC,083940.000,A,4804.9891,N,00145.8475,W,043.41,0.0,161020,,,E*47
$GPGGA,083950.000,4805.2115,N,00145.8240,W,1,00,,372.1,M,0.0,M,,0000*50
$GPRMC,083950.000,A,4805.2115,N,00145.8240,W,039.34,0.0,161020,,,E*46
$GPGGA,084010.000,4805.4432,N,00145.3425,W,1,00,,430.4,M,0.0,M,,0000*56
$GPRMC,084010.000,A,4805.4432,N,00145.3425,W,041.73,0.0,161020,,,E*48
$GPGGA,084020.000,4805.3890,N,00144.9843,W,1,00,,463.0,M,0.0,M,,0000*53
$GPRMC,084020.000,A,4805.3890,N,00144.9843,W,046.33,0.0,161020,,,E*4C
$GPGGA,084040.000,4805.2283,N,00144.3221,W,1,00,,543.9,M,0.0,M,,0000*52
$GPRMC,084040.000,A,4805.2283,N,00144.3221,W,044.25,0.0,161020,,,E*42
$GPGGA,084059.000,4805.0380,N,00143.6763,W,1,00,,608.6,M,0.0,M,,0000*58
$GPRMC,084059.000,A,4805.0380,N,00143.6763,W,045.94,0.0,161020,,,E*40
$GPGGA,084110.000,4804.9060,N,00143.3103,W,1,00,,650.3,M,0.0,M,,0000*5C
$GPRMC,084110.000,A,4804.9060,N,00143.3103,W,045.84,0.0,161020,,,E*4D
$GPGGA,084120.000,4804.7998,N,00142.9866,W,1,00,,702.4,M,0.0,M,,0000*5F
$GPRMC,084120.000,A,4804.7998,N,00142.9866,W,045.00,0.0,161020,,,E*43
$GPGGA,084139.000,4804.6679,N,00142.3345,W,1,00,,745.7,M,0.0,M,,0000*56
$GPRMC,084139.000,A,4804.6679,N,00142.3345,W,044.60,0.0,161020,,,E*4D
$GPGGA,084149.000,4804.6155,N,00141.9928,W,1,00,,792.2,M,0.0,M,,0000*5F
$GPRMC,084149.000,A,4804.6155,N,00141.9928,W,043.12,0.0,161020,,,E*49
$GPGGA,084159.000,4804.5575,N,00141.6454,W,1,00,,802.7,M,0.0,M,,0000*51
$GPRMC,084159.000,A,4804.5575,N,00141.6454,W,045.17,0.0,161020,,,E*47
$GPGGA,084210.000,4804.4881,N,00141.2716,W,1,00,,873.9,M,0.0,M,,0000*51
$GPRMC,084210.000,A,4804.4881,N,00141.2716,W,043.53,0.0,161020,,,E*49
$GPGGA,084229.000,4804.4294,N,00140.6095,W,1,00,,918.4,M,0.0,M,,0000*5D
$GPRMC,084229.000,A,4804.4294,N,00140.6095,W,043.64,0.0,161020,,,E*40
$GPGGA,084240.000,4804.4104,N,00140.2086,W,1,00,,933.4,M,0.0,M,,0000*57
$GPRMC,084240.000,A,4804.4104,N,00140.2086,W,047.93,0.0,161020,,,E*4F
$GPGGA,084250.000,4804.3755,N,00139.8064,W,1,00,,941.4,M,0.0,M,,0000*5E
$GPRMC,084250.000,A,4804.3755,N,00139.8064,W,050.07,0.0,161020,,,E*48
$GPGGA,084309.000,4804.2870,N,00139.0534,W,1,00,,967.3,M,0.0,M,,0000*51
$GPRMC,084309.000,A,4804.2870,N,00139.0534,W,049.88,0.0,161020,,,E*4B
$GPGGA,084329.000,4804.1928,N,00138.2278,W,1,00,,996.6,M,0.0,M,,0000*5B
$GPRMC,084329.000,A,4804.1928,N,00138.2278,W,053.63,0.0,161020,,,E*44
$GPGGA,084339.000,4804.1454,N,00137.8020,W,1,00,,973.7,M,0.0,M,,0000*5C
$GPRMC,084339.000,A,4804.1454,N,00137.8020,W,053.47,0.0,161020,,,E*4F
$GPGGA,084349.000,4804.1082,N,00137.3795,W,1,00,,985.6,M,0.0,M,,0000*5E
$GPRMC,084349.000,A,4804.1082,N,00137.3795,W,053.13,0.0,161020,,,E*44
$GPGGA,084410.000,4804.0487,N,00136.4946,W,1,00,,998.9,M,0.0,M,,0000*50
$GPRMC,084410.000,A,4804.0487,N,00136.4946,W,052.43,0.0,161020,,,E*4D
$GPGGA,084430.000,4804.0163,N,00135.6434,W,1,00,,973.6,M,0.0,M,,0000*5E
$GPRMC,084430.000,A,4804.0163,N,00135.6434,W,053.30,0.0,161020,,,E*4C
$GPGGA,084440.000,4803.9804,N,00135.2143,W,1,00,,961.6,M,0.0,M,,0000*5D
$GPRMC,084440.000,A,4803.9804,N,00135.2143,W,052.36,0.0,161020,,,E*4B
$GPGGA,084459.000,4803.9275,N,00134.4090,W,1,00,,960.3,M,0.0,M,,0000*55
$GPRMC,084459.000,A,4803.9275,N,00134.4090,W,055.13,0.0,161020,,,E*47
$GPGGA,084509.000,4803.8817,N,00133.9720,W,1,00,,957.6,M,0.0,M,,0000*59
$GPRMC,084509.000,A,4803.8817,N,00133.9720,W,054.48,0.0,161020,,,E*45
$GPGGA,084529.000,4803.7963,N,00133.1247,W,1,00,,978.9,M,0.0,M,,0000*58
$GPRMC,084529.000,A,4803.7963,N,00133.1247,W,053.80,0.0,161020,,,E*45
$GPGGA,084539.000,4803.7447,N,00132.7054,W,1,00,,962.6,M,0.0,M,,0000*51
$GPRMC,084539.000,A,4803.7447,N,00132.7054,W,052.08,0.0,161020,,,E*49
$GPGGA,084559.000,4803.6737,N,00131.8985,W,1,00,,973.9,M,0.0,M,,0000*54
$GPRMC,084559.000,A,4803.6737,N,00131.8985,W,050.28,0.0,161020,,,E*43
$GPGGA,084609.000,4803.6511,N,00131.4934,W,1,00,,977.8,M,0.0,M,,0000*57
$GPRMC,084609.000,A,4803.6511,N,00131.4934,W,050.91,0.0,161020,,,E*47
$GPGGA,084620.000,4803.6433,N,00131.0297,W,1,00,,957.3,M,0.0,M,,0000*52
$GPRMC,084620.000,A,4803.6433,N,00131.0297,W,053.08,0.0,161020,,,E*48
$GPGGA,084639.000,4803.6233,N,00130.2568,W,1,00,,980.3,M,0.0,M,,0000*52
$GPRMC,084639.000,A,4803.6233,N,00130.2568,W,050.33,0.0,161020,,,E*49
$GPGGA,084650.000,4803.5993,N,00129.8155,W,1,00,,980.5,M,0.0,M,,0000*51
$GPRMC,084650.000,A,4803.5993,N,00129.8155,W,050.87,0.0,161020,,,E*43
$GPGGA,084700.000,4803.5772,N,00129.4032,W,1,00,,972.0,M,0.0,M,,0000*50
$GPRMC,084700.000,A,4803.5772,N,00129.4032,W,051.41,0.0,161020,,,E*41
$GPGGA,084719.000,4803.5145,N,00128.6092,W,1,00,,966.7,M,0.0,M,,0000*51
$GPRMC,084719.000,A,4803.5145,N,00128.6092,W,052.03,0.0,161020,,,E*47
$GPGGA,084730.000,4803.4882,N,00128.1526,W,1,00,,943.4,M,0.0,M,,0000*50
$GPRMC,084730.000,A,4803.4882,N,00128.1526,W,053.02,0.0,161020,,,E*42
$GPGGA,084749.000,4803.4403,N,00127.3517,W,1,00,,971.1,M,0.0,M,,0000*50
$GPRMC,084749.000,A,4803.4403,N,00127.3517,W,052.32,0.0,161020,,,E*44
$GPGGA,084809.000,4803.4235,N,00126.5155,W,1,00,,959.2,M,0.0,M,,0000*54
$GPRMC,084809.000,A,4803.4235,N,00126.5155,W,051.80,0.0,161020,,,E*43
$GPGGA,084819.000,4803.4239,N,00126.0879,W,1,00,,952.8,M,0.0,M,,0000*5A
$GPRMC,084819.000,A,4803.4239,N,00126.0879,W,052.87,0.0,161020,,,E*48
$GPGGA,084839.000,4803.4357,N,00125.2254,W,1,00,,944.9,M,0.0,M,,0000*53
$GPRMC,084839.000,A,4803.4357,N,00125.2254,W,053.29,0.0,161020,,,E*42
$GPGGA,084849.000,4803.4348,N,00124.8193,W,1,00,,947.4,M,0.0,M,,0000*57
$GPRMC,084849.000,A,4803.4348,N,00124.8193,W,050.73,0.0,161020,,,E*44
$GPGGA,084859.000,4803.4239,N,00124.4129,W,1,00,,951.3,M,0.0,M,,0000*5C
$GPRMC,084859.000,A,4803.4239,N,00124.4129,W,050.99,0.0,161020,,,E*4B
$GPGGA,084909.000,4803.4029,N,00123.9914,W,1,00,,946.0,M,0.0,M,,0000*52
$GPRMC,084909.000,A,4803.4029,N,00123.9914,W,052.13,0.0,161020,,,E*40
$GPGGA,084919.000,4803.3725,N,00123.5882,W,1,00,,954.2,M,0.0,M,,0000*5C
$GPRMC,084919.000,A,4803.3725,N,00123.5882,W,052.41,0.0,161020,,,E*48
$GPGGA,084929.000,4803.3238,N,00123.1532,W,1,00,,932.1,M,0.0,M,,0000*57
$GPRMC,084929.000,A,4803.3238,N,00123.1532,W,052.72,0.0,161020,,,E*40
$GPGGA,084939.000,4803.2690,N,00122.7497,W,1,00,,931.8,M,0.0,M,,0000*52
$GPRMC,084939.000,A,4803.2690,N,00122.7497,W,053.28,0.0,161020,,,E*41
$GPGGA,084958.000,4803.1221,N,00121.9457,W,1,00,,935.9,M,0.0,M,,0000*5C
$GPRMC,084958.000,A,4803.1221,N,00121.9457,W,052.56,0.0,161020,,,E*42
$GPGGA,085009.000,4803.0915,N,00121.4881,W,1,00,,953.4,M,0.0,M,,0000*5A
$GPRMC,085009.000,A,4803.0915,N,00121.4881,W,050.82,0.0,161020,,,E*42
$GPGGA,085019.000,4803.0849,N,00121.0872,W,1,00,,954.1,M,0.0,M,,0000*59
$GPRMC,085019.000,A,4803.0849,N,00121.0872,W,049.77,0.0,161020,,,E*41
$GPGGA,085029.000,4803.0735,N,00120.6909,W,1,00,,953.9,M,0.0,M,,0000*5B
$GPRMC,085029.000,A,4803.0735,N,00120.6909,W,049.88,0.0,161020,,,E*4C
$GPGGA,085039.000,4803.0776,N,00120.2751,W,1,00,,949.6,M,0.0,M,,0000*5E
$GPRMC,085039.000,A,4803.0776,N,00120.2751,W,051.03,0.0,161020,,,E*47
$GPGGA,085059.000,4803.0455,N,00119.4511,W,1,00,,960.5,M,0.0,M,,0000*58
$GPRMC,085059.000,A,4803.0455,N,00119.4511,W,051.48,0.0,161020,,,E*46
$GPGGA,085109.000,4803.0183,N,00119.0358,W,1,00,,948.5,M,0.0,M,,0000*57
$GPRMC,085109.000,A,4803.0183,N,00119.0358,W,052.32,0.0,161020,,,E*4D
$GPGGA,085129.000,4802.9578,N,00118.2111,W,1,00,,964.1,M,0.0,M,,0000*5B
$GPRMC,085129.000,A,4802.9578,N,00118.2111,W,052.34,0.0,161020,,,E*4D
$GPGGA,085139.000,4802.9214,N,00117.8088,W,1,00,,962.8,M,0.0,M,,0000*5C
$GPRMC,085139.000,A,4802.9214,N,00117.8088,W,052.27,0.0,161020,,,E*47
$GPGGA,085149.000,4802.8649,N,00117.3905,W,1,00,,961.1,M,0.0,M,,0000*5B
$GPRMC,085149.000,A,4802.8649,N,00117.3905,W,051.49,0.0,161020,,,E*41
$GPGGA,085202.000,4802.7923,N,00116.8702,W,1,00,,954.2,M,0.0,M,,0000*5D
$GPRMC,085202.000,A,4802.7923,N,00116.8702,W,051.38,0.0,161020,,,E*44
$GPGGA,085218.000,4802.7240,N,00116.2163,W,1,00,,952.2,M,0.0,M,,0000*55
$GPRMC,085218.000,A,4802.7240,N,00116.2163,W,051.39,0.0,161020,,,E*4B
$GPGGA,085238.000,4802.6880,N,00115.4044,W,1,00,,961.1,M,0.0,M,,0000*52
$GPRMC,085238.000,A,4802.6880,N,00115.4044,W,050.37,0.0,161020,,,E*40
$GPGGA,085248.000,4802.6753,N,00114.9934,W,1,00,,952.9,M,0.0,M,,0000*5E
$GPRMC,085248.000,A,4802.6753,N,00114.9934,W,051.82,0.0,161020,,,E*4B
$GPGGA,085307.000,4802.6475,N,00114.2206,W,1,00,,941.9,M,0.0,M,,0000*50
$GPRMC,085307.000,A,4802.6475,N,00114.2206,W,051.49,0.0,161020,,,E*40
$GPGGA,085326.000,4802.6045,N,00113.4537,W,1,00,,927.0,M,0.0,M,,0000*59
$GPRMC,085326.000,A,4802.6045,N,00113.4537,W,051.17,0.0,161020,,,E*4B
$GPGGA,085337.000,4802.5706,N,00112.9934,W,1,00,,936.4,M,0.0,M,,0000*5D
$GPRMC,085337.000,A,4802.5706,N,00112.9934,W,051.66,0.0,161020,,,E*4D
$GPGGA,085347.000,4802.5213,N,00112.5804,W,1,00,,931.3,M,0.0,M,,0000*55
$GPRMC,085347.000,A,4802.5213,N,00112.5804,W,051.72,0.0,161020,,,E*40
$GPGGA,085357.000,4802.4759,N,00112.1794,W,1,00,,929.7,M,0.0,M,,0000*51
$GPRMC,085357.000,A,4802.4759,N,00112.1794,W,051.04,0.0,161020,,,E*48
$GPGGA,085407.000,4802.4246,N,00111.7709,W,1,00,,934.5,M,0.0,M,,0000*57
$GPRMC,085407.000,A,4802.4246,N,00111.7709,W,050.34,0.0,161020,,,E*42
$GPGGA,085417.000,4802.4010,N,00111.3636,W,1,00,,945.6,M,0.0,M,,0000*5B
$GPRMC,085417.000,A,4802.4010,N,00111.3636,W,050.79,0.0,161020,,,E*42
$GPGGA,085437.000,4802.3528,N,00110.5633,W,1,00,,943.2,M,0.0,M,,0000*50
$GPRMC,085437.000,A,4802.3528,N,00110.5633,W,050.76,0.0,161020,,,E*44
$GPGGA,085447.000,4802.3274,N,00110.1569,W,1,00,,937.9,M,0.0,M,,0000*59
$GPRMC,085447.000,A,4802.3274,N,00110.1569,W,049.89,0.0,161020,,,E*4D
$GPGGA,085458.000,4802.3213,N,00109.7102,W,1,00,,949.8,M,0.0,M,,0000*59
$GPRMC,085458.000,A,4802.3213,N,00109.7102,W,050.10,0.0,161020,,,E*4D
$GPGGA,085517.000,4802.2909,N,00108.9335,W,1,00,,943.5,M,0.0,M,,0000*5C
$GPRMC,085517.000,A,4802.2909,N,00108.9335,W,051.40,0.0,161020,,,E*4B
$GPGGA,085527.000,4802.2605,N,00108.5345,W,1,00,,933.5,M,0.0,M,,0000*50
$GPRMC,085527.000,A,4802.2605,N,00108.5345,W,050.47,0.0,161020,,,E*46
$GPGGA,085538.000,4802.2224,N,00108.0757,W,1,00,,941.3,M,0.0,M,,0000*58
$GPRMC,085538.000,A,4802.2224,N,00108.0757,W,050.98,0.0,161020,,,E*4F
$GPGGA,085548.000,4802.1675,N,00107.7030,W,1,00,,925.2,M,0.0,M,,0000*51
$GPRMC,085548.000,A,4802.1675,N,00107.7030,W,049.84,0.0,161020,,,E*40
$GPGGA,085558.000,4802.1523,N,00107.3008,W,1,00,,936.1,M,0.0,M,,0000*5E
$GPRMC,085558.000,A,4802.1523,N,00107.3008,W,049.57,0.0,161020,,,E*40
$GPGGA,085608.000,4802.1346,N,00106.8869,W,1,00,,919.0,M,0.0,M,,0000*54
$GPRMC,085608.000,A,4802.1346,N,00106.8869,W,050.85,0.0,161020,,,E*41
$GPGGA,085618.000,4802.1213,N,00106.4845,W,1,00,,937.7,M,0.0,M,,0000*5D
$GPRMC,085618.000,A,4802.1213,N,00106.4845,W,049.56,0.0,161020,,,E*45
$GPGGA,085628.000,4802.1292,N,00106.0810,W,1,00,,943.6,M,0.0,M,,0000*51
$GPRMC,085628.000,A,4802.1292,N,00106.0810,W,050.50,0.0,161020,,,E*45
$GPGGA,085647.000,4802.1738,N,00105.3226,W,1,00,,938.2,M,0.0,M,,0000*5A
$GPRMC,085647.000,A,4802.1738,N,00105.3226,W,049.70,0.0,161020,,,E*4C
$GPGGA,085657.000,4802.2082,N,00104.9217,W,1,00,,937.4,M,0.0,M,,0000*5E
$GPRMC,085657.000,A,4802.2082,N,00104.9217,W,050.38,0.0,161020,,,E*45
$GPGGA,085707.000,4802.2370,N,00104.5204,W,1,00,,930.3,M,0.0,M,,0000*5A
$GPRMC,085707.000,A,4802.2370,N,00104.5204,W,049.39,0.0,161020,,,E*48
$GPGGA,085717.000,4802.2488,N,00104.1199,W,1,00,,930.0,M,0.0,M,,0000*5B
$GPRMC,085717.000,A,4802.2488,N,00104.1199,W,049.37,0.0,161020,,,E*44
$GPGGA,085728.000,4802.2439,N,00103.6731,W,1,00,,932.9,M,0.0,M,,0000*52
$GPRMC,085728.000,A,4802.2439,N,00103.6731,W,049.39,0.0,161020,,,E*48
$GPGGA,085748.000,4802.2227,N,00102.8650,W,1,00,,926.2,M,0.0,M,,0000*5A
$GPRMC,085748.000,A,4802.2227,N,00102.8650,W,050.15,0.0,161020,,,E*48
$GPGGA,085758.000,4802.2113,N,00102.4636,W,1,00,,932.3,M,0.0,M,,0000*57
$GPRMC,085758.000,A,4802.2113,N,00102.4636,W,049.40,0.0,161020,,,E*49
$GPGGA,085808.000,4802.1931,N,00102.0702,W,1,00,,929.2,M,0.0,M,,0000*5F
$GPRMC,085808.000,A,4802.1931,N,00102.0702,W,050.02,0.0,161020,,,E*44
$GPGGA,085818.000,4802.1827,N,00101.6744,W,1,00,,939.6,M,0.0,M,,0000*5A
$GPRMC,085818.000,A,4802.1827,N,00101.6744,W,049.64,0.0,161020,,,E*4C
$GPGGA,085837.000,4802.2275,N,00100.9201,W,1,00,,939.9,M,0.0,M,,0000*5C
$GPRMC,085837.000,A,4802.2275,N,00100.9201,W,049.49,0.0,161020,,,E*4A
$GPGGA,085848.000,4802.2746,N,00100.4875,W,1,00,,948.1,M,0.0,M,,0000*5B
$GPRMC,085848.000,A,4802.2746,N,00100.4875,W,049.60,0.0,161020,,,E*48
$GPGGA,085858.000,4802.2990,N,00100.0871,W,1,00,,935.3,M,0.0,M,,0000*57
$GPRMC,085858.000,A,4802.2990,N,00100.0871,W,049.13,0.0,161020,,,E*48
$GPGGA,085918.000,4802.3621,N,00059.2927,W,1,00,,944.9,M,0.0,M,,0000*57
$GPRMC,085918.000,A,4802.3621,N,00059.2927,W,049.91,0.0,161020,,,E*4E
$GPGGA,085928.000,4802.3713,N,00058.8910,W,1,00,,949.1,M,0.0,M,,0000*5E
$GPRMC,085928.000,A,4802.3713,N,00058.8910,W,049.33,0.0,161020,,,E*4A
$GPGGA,085947.000,4802.3571,N,00058.1325,W,1,00,,922.9,M,0.0,M,,0000*51
$GPRMC,085947.000,A,4802.3571,N,00058.1325,W,051.04,0.0,161020,,,E*4D
$GPGGA,085958.000,4802.3311,N,00057.6918,W,1,00,,924.2,M,0.0,M,,0000*5E
$GPRMC,085958.000,A,4802.3311,N,00057.6918,W,050.63,0.0,161020,,,E*4F
$GPGGA,090017.000,4802.2865,N,00056.9130,W,1,00,,938.3,M,0.0,M,,0000*51
$GPRMC,090017.000,A,4802.2865,N,00056.9130,W,049.98,0.0,161020,,,E*40
$GPGGA,090037.000,4802.2551,N,00056.1168,W,1,00,,897.5,M,0.0,M,,0000*5E
$GPRMC,090037.000,A,4802.2551,N,00056.1168,W,053.29,0.0,161020,,,E*4C
$GPGGA,090048.000,4802.2194,N,00055.6336,W,1,00,,882.9,M,0.0,M,,0000*5E
$GPRMC,090048.000,A,4802.2194,N,00055.6336,W,051.77,0.0,161020,,,E*4D
$GPGGA,090107.000,4802.1544,N,00054.8341,W,1,00,,851.3,M,0.0,M,,0000*55
$GPRMC,090107.000,A,4802.1544,N,00054.8341,W,053.42,0.0,161020,,,E*46
$GPGGA,090127.000,4802.0580,N,00054.0031,W,1,00,,801.7,M,0.0,M,,0000*53
$GPRMC,090127.000,A,4802.0580,N,00054.0031,W,053.08,0.0,161020,,,E*4F
$GPGGA,090146.000,4801.9738,N,00053.2158,W,1,00,,777.6,M,0.0,M,,0000*5B
$GPRMC,090146.000,A,4801.9738,N,00053.2158,W,052.76,0.0,161020,,,E*40
$GPGGA,090156.000,4801.9382,N,00052.7870,W,1,00,,758.3,M,0.0,M,,0000*50
$GPRMC,090156.000,A,4801.9382,N,00052.7870,W,053.23,0.0,161020,,,E*42
$GPGGA,090207.000,4801.9044,N,00052.3178,W,1,00,,721.3,M,0.0,M,,0000*55
$GPRMC,090207.000,A,4801.9044,N,00052.3178,W,053.40,0.0,161020,,,E*4C
$GPGGA,090217.000,4801.8691,N,00051.8823,W,1,00,,704.9,M,0.0,M,,0000*59
$GPRMC,090217.000,A,4801.8691,N,00051.8823,W,053.36,0.0,161020,,,E*4C
$GPGGA,090227.000,4801.8208,N,00051.4604,W,1,00,,675.4,M,0.0,M,,0000*53
$GPRMC,090227.000,A,4801.8208,N,00051.4604,W,053.92,0.0,161020,,,E*42
$GPGGA,090238.000,4801.7688,N,00050.9738,W,1,00,,647.2,M,0.0,M,,0000*5B
$GPRMC,090238.000,A,4801.7688,N,00050.9738,W,054.54,0.0,161020,,,E*40
$GPGGA,090257.000,4801.6989,N,00050.1651,W,1,00,,598.9,M,0.0,M,,0000*51
$GPRMC,090257.000,A,4801.6989,N,00050.1651,W,054.75,0.0,161020,,,E*43
$GPGGA,090307.000,4801.6528,N,00049.7132,W,1,00,,566.8,M,0.0,M,,0000*5E
$GPRMC,090307.000,A,4801.6528,N,00049.7132,W,055.50,0.0,161020,,,E*4A
$GPGGA,090317.000,4801.5949,N,00049.2824,W,1,00,,526.2,M,0.0,M,,0000*52
$GPRMC,090317.000,A,4801.5949,N,00049.2824,W,053.70,0.0,161020,,,E*4C
$GPGGA,090328.000,4801.5128,N,00048.8169,W,1,00,,481.3,M,0.0,M,,0000*57
$GPRMC,090328.000,A,4801.5128,N,00048.8169,W,052.37,0.0,161020,,,E*46
$GPGGA,090338.000,4801.4524,N,00048.4201,W,1,00,,451.0,M,0.0,M,,0000*50
$GPRMC,090338.000,A,4801.4524,N,00048.4201,W,049.80,0.0,161020,,,E*49
$GPGGA,090348.000,4801.3716,N,00048.0802,W,1,00,,452.8,M,0.0,M,,0000*55
$GPRMC,090348.000,A,4801.3716,N,00048.0802,W,043.32,0.0,161020,,,E*44
$GPGGA,090358.000,4801.2665,N,00047.7720,W,1,00,,464.2,M,0.0,M,,0000*58
$GPRMC,090358.000,A,4801.2665,N,00047.7720,W,041.62,0.0,161020,,,E*41
$GPGGA,090418.000,4800.9952,N,00047.2469,W,1,00,,433.5,M,0.0,M,,0000*54
$GPRMC,090418.000,A,4800.9952,N,00047.2469,W,043.63,0.0,161020,,,E*4B
$GPGGA,090428.000,4800.8216,N,00046.9900,W,1,00,,464.0,M,0.0,M,,0000*52
$GPRMC,090428.000,A,4800.8216,N,00046.9900,W,043.58,0.0,161020,,,E*42
$GPGGA,090438.000,4800.6267,N,00046.7741,W,1,00,,461.1,M,0.0,M,,0000*5A
$GPRMC,090438.000,A,4800.6267,N,00046.7741,W,044.07,0.0,161020,,,E*43
$GPGGA,090448.000,4800.4185,N,00046.5761,W,1,00,,465.3,M,0.0,M,,0000*56
$GPRMC,090448.000,A,4800.4185,N,00046.5761,W,045.52,0.0,161020,,,E*48
$GPGGA,090508.000,4800.0422,N,00046.1381,W,1,00,,478.9,M,0.0,M,,0000*57
$GPRMC,090508.000,A,4800.0422,N,00046.1381,W,043.32,0.0,161020,,,E*4F
$GPGGA,090527.000,4759.7247,N,00045.6886,W,1,00,,468.8,M,0.0,M,,0000*53
$GPRMC,090527.000,A,4759.7247,N,00045.6886,W,041.61,0.0,161020,,,E*4F
$GPGGA,090538.000,4759.7069,N,00045.3718,W,1,00,,465.8,M,0.0,M,,0000*53
$GPRMC,090538.000,A,4759.7069,N,00045.3718,W,037.65,0.0,161020,,,E*47
$GPGGA,090558.000,4759.8345,N,00044.7874,W,1,00,,477.1,M,0.0,M,,0000*5D
$GPRMC,090558.000,A,4759.8345,N,00044.7874,W,038.12,0.0,161020,,,E*4C
$GPGGA,090608.000,4759.8887,N,00044.4813,W,1,00,,520.3,M,0.0,M,,0000*5D
$GPRMC,090608.000,A,4759.8887,N,00044.4813,W,038.85,0.0,161020,,,E*43
$GPGGA,090628.000,4800.0235,N,00043.8824,W,1,00,,445.8,M,0.0,M,,0000*51
$GPRMC,090628.000,A,4800.0235,N,00043.8824,W,039.34,0.0,161020,,,E*4D
$GPGGA,090638.000,4800.0982,N,00043.5843,W,1,00,,411.2,M,0.0,M,,0000*50
$GPRMC,090638.000,A,4800.0982,N,00043.5843,W,038.93,0.0,161020,,,E*4B
$GPGGA,090648.000,4800.2006,N,00043.3229,W,1,00,,379.5,M,0.0,M,,0000*5E
$GPRMC,090648.000,A,4800.2006,N,00043.3229,W,036.79,0.0,161020,,,E*41
$GPGGA,090658.000,4800.3516,N,00043.1379,W,1,00,,358.2,M,0.0,M,,0000*58
$GPRMC,090658.000,A,4800.3516,N,00043.1379,W,036.03,0.0,161020,,,E*4E
$GPGGA,090708.000,4800.5601,N,00043.1077,W,1,00,,325.7,M,0.0,M,,0000*5D
$GPRMC,090708.000,A,4800.5601,N,00043.1077,W,043.42,0.0,161020,,,E*43
$GPGGA,090718.000,4800.7435,N,00043.2529,W,1,00,,232.6,M,0.0,M,,0000*50
$GPRMC,090718.000,A,4800.7435,N,00043.2529,W,043.47,0.0,161020,,,E*4D
$GPGGA,090728.000,4800.9279,N,00043.4818,W,1,00,,216.7,M,0.0,M,,0000*5D
$GPRMC,090728.000,A,4800.9279,N,00043.4818,W,042.04,0.0,161020,,,E*41
$GPGGA,090738.000,4801.1063,N,00043.6826,W,1,00,,220.2,M,0.0,M,,0000*53
$GPRMC,090738.000,A,4801.1063,N,00043.6826,W,039.45,0.0,161020,,,E*46
$GPGGA,090748.000,4801.2745,N,00043.8702,W,1,00,,210.5,M,0.0,M,,0000*57
$GPRMC,090748.000,A,4801.2745,N,00043.8702,W,039.17,0.0,161020,,,E*41
$GPGGA,090808.000,4801.5954,N,00044.2411,W,1,00,,155.0,M,0.0,M,,0000*5E
$GPRMC,090808.000,A,4801.5954,N,00044.2411,W,037.50,0.0,161020,,,E*42
$GPGGA,090818.000,4801.7524,N,00044.4141,W,1,00,,163.7,M,0.0,M,,0000*52
$GPRMC,090818.000,A,4801.7524,N,00044.4141,W,033.48,0.0,161020,,,E*41
$GPGGA,090837.000,4801.9692,N,00044.6630,W,1,00,,153.1,M,0.0,M,,0000*59
$GPRMC,090837.000,A,4801.9692,N,00044.6630,W,027.20,0.0,161020,,,E*44
$GPGGA,090847.000,4802.1110,N,00044.8276,W,1,00,,153.2,M,0.0,M,,0000*53
$GPRMC,090847.000,A,4802.1110,N,00044.8276,W,039.32,0.0,161020,,,E*41
$GPGGA,090858.000,4802.3020,N,00045.0595,W,1,00,,179.5,M,0.0,M,,0000*51
$GPRMC,090858.000,A,4802.3020,N,00045.0595,W,041.60,0.0,161020,,,E*44
$GPGGA,090917.000,4802.6319,N,00045.5072,W,1,00,,273.2,M,0.0,M,,0000*50
$GPRMC,090917.000,A,4802.6319,N,00045.5072,W,044.49,0.0,161020,,,E*45
$GPGGA,090927.000,4802.7468,N,00045.8255,W,1,00,,282.2,M,0.0,M,,0000*57
$GPRMC,090927.000,A,4802.7468,N,00045.8255,W,047.57,0.0,161020,,,E*40
$GPGGA,090938.000,4802.7343,N,00046.2593,W,1,00,,282.9,M,0.0,M,,0000*58
$GPRMC,090938.000,A,4802.7343,N,00046.2593,W,053.01,0.0,161020,,,E*42
$GPGGA,090958.000,4802.5069,N,00047.0695,W,1,00,,345.4,M,0.0,M,,0000*56
$GPRMC,090958.000,A,4802.5069,N,00047.0695,W,053.07,0.0,161020,,,E*4D
$GPGGA,091008.000,4802.4126,N,00047.4898,W,1,00,,386.1,M,0.0,M,,0000*5D
$GPRMC,091008.000,A,4802.4126,N,00047.4898,W,055.07,0.0,161020,,,E*4A
$GPGGA,091027.000,4802.4118,N,00048.2581,W,1,00,,476.3,M,0.0,M,,0000*5B
$GPRMC,091027.000,A,4802.4118,N,00048.2581,W,048.74,0.0,161020,,,E*4E
$GPGGA,091047.000,4802.5235,N,00049.0562,W,1,00,,533.3,M,0.0,M,,0000*5E
$GPRMC,091047.000,A,4802.5235,N,00049.0562,W,050.81,0.0,161020,,,E*48
$GPGGA,091057.000,4802.5919,N,00049.4582,W,1,00,,543.4,M,0.0,M,,0000*50
$GPRMC,091057.000,A,4802.5919,N,00049.4582,W,050.13,0.0,161020,,,E*4D
$GPGGA,091109.000,4802.5931,N,00049.9519,W,1,00,,615.8,M,0.0,M,,0000*53
$GPRMC,091109.000,A,4802.5931,N,00049.9519,W,052.30,0.0,161020,,,E*41
$GPGGA,091128.000,4802.2828,N,00050.6282,W,1,00,,673.5,M,0.0,M,,0000*51
$GPRMC,091128.000,A,4802.2828,N,00050.6282,W,053.28,0.0,161020,,,E*46
$GPGGA,091147.000,4801.8108,N,00051.0014,W,1,00,,742.8,M,0.0,M,,0000*5E
$GPRMC,091147.000,A,4801.8108,N,00051.0014,W,052.80,0.0,161020,,,E*44
$GPGGA,091158.000,4801.5075,N,00051.1096,W,1,00,,780.4,M,0.0,M,,0000*5F
$GPRMC,091158.000,A,4801.5075,N,00051.1096,W,050.80,0.0,161020,,,E*45
$GPGGA,091208.000,4801.2412,N,00051.1120,W,1,00,,821.4,M,0.0,M,,0000*53
$GPRMC,091208.000,A,4801.2412,N,00051.1120,W,049.70,0.0,161020,,,E*4A
$GPGGA,091218.000,4800.9810,N,00051.0278,W,1,00,,841.7,M,0.0,M,,0000*5C
$GPRMC,091218.000,A,4800.9810,N,00051.0278,W,047.16,0.0,161020,,,E*4E
$GPGGA,091228.000,4800.8012,N,00050.7987,W,1,00,,919.5,M,0.0,M,,0000*57
$GPRMC,091228.000,A,4800.8012,N,00050.7987,W,043.08,0.0,161020,,,E*40
$GPGGA,091248.000,4800.8882,N,00050.1720,W,1,00,,939.7,M,0.0,M,,0000*55
$GPRMC,091248.000,A,4800.8882,N,00050.1720,W,041.18,0.0,161020,,,E*41
$GPGGA,091258.000,4801.1349,N,00050.0858,W,1,00,,944.4,M,0.0,M,,0000*58
$GPRMC,091258.000,A,4801.1349,N,00050.0858,W,050.47,0.0,161020,,,E*4F
$GPGGA,091309.000,4801.4040,N,00050.3533,W,1,00,,939.3,M,0.0,M,,0000*5C
$GPRMC,091309.000,A,4801.4040,N,00050.3533,W,057.06,0.0,161020,,,E*44
$GPGGA,091327.000,4801.6181,N,00051.1649,W,1,00,,937.0,M,0.0,M,,0000*5E
$GPRMC,091327.000,A,4801.6181,N,00051.1649,W,062.78,0.0,161020,,,E*44
$GPGGA,091337.000,4801.6603,N,00051.6701,W,1,00,,940.1,M,0.0,M,,0000*59
$GPRMC,091337.000,A,4801.6603,N,00051.6701,W,063.06,0.0,161020,,,E*4A
$GPGGA,091347.000,4801.6594,N,00052.1687,W,1,00,,942.5,M,0.0,M,,0000*5E
$GPRMC,091347.000,A,4801.6594,N,00052.1687,W,062.23,0.0,161020,,,E*4D
$GPGGA,091358.000,4801.6392,N,00052.7019,W,1,00,,947.5,M,0.0,M,,0000*52
$GPRMC,091358.000,A,4801.6392,N,00052.7019,W,060.20,0.0,161020,,,E*45
$GPGGA,091417.000,4801.6827,N,00053.6260,W,1,00,,941.9,M,0.0,M,,0000*5D
$GPRMC,091417.000,A,4801.6827,N,00053.6260,W,061.23,0.0,161020,,,E*42
$GPGGA,091428.000,4801.7016,N,00054.1709,W,1,00,,941.8,M,0.0,M,,0000*51
$GPRMC,091428.000,A,4801.7016,N,00054.1709,W,060.92,0.0,161020,,,E*44
$GPGGA,091447.000,4801.7340,N,00055.1108,W,1,00,,948.4,M,0.0,M,,0000*5B
$GPRMC,091447.000,A,4801.7340,N,00055.1108,W,061.71,0.0,161020,,,E*47
$GPGGA,091457.000,4801.7656,N,00055.5814,W,1,00,,962.0,M,0.0,M,,0000*54
$GPRMC,091457.000,A,4801.7656,N,00055.5814,W,060.23,0.0,161020,,,E*42
$GPGGA,091507.000,4801.7960,N,00056.0671,W,1,00,,955.8,M,0.0,M,,0000*5D
$GPRMC,091507.000,A,4801.7960,N,00056.0671,W,060.63,0.0,161020,,,E*43
$GPGGA,091517.000,4801.8253,N,00056.5599,W,1,00,,958.8,M,0.0,M,,0000*55
$GPRMC,091517.000,A,4801.8253,N,00056.5599,W,062.38,0.0,161020,,,E*4A
$GPGGA,091527.000,4801.8542,N,00057.0585,W,1,00,,965.1,M,0.0,M,,0000*5F
$GPRMC,091527.000,A,4801.8542,N,00057.0585,W,060.97,0.0,161020,,,E*40
$GPGGA,091547.000,4801.8470,N,00058.0449,W,1,00,,971.1,M,0.0,M,,0000*52
$GPRMC,091547.000,A,4801.8470,N,00058.0449,W,061.15,0.0,161020,,,E*43
$GPGGA,091557.000,4801.8481,N,00058.5268,W,1,00,,997.3,M,0.0,M,,0000*57
$GPRMC,091557.000,A,4801.8481,N,00058.5268,W,059.62,0.0,161020,,,E*47
$GPGGA,091639.000,4801.9354,N,00100.5909,W,1,00,,979.7,M,0.0,M,,0000*56
$GPRMC,091639.000,A,4801.9354,N,00100.5909,W,063.07,0.0,161020,,,E*48
$GPGGA,091651.000,4801.9946,N,00101.1850,W,1,00,,956.4,M,0.0,M,,0000*57
$GPRMC,091651.000,A,4801.9946,N,00101.1850,W,062.44,0.0,161020,,,E*41
$GPGGA,091702.000,4802.0375,N,00101.7352,W,1,00,,971.4,M,0.0,M,,0000*5A
$GPRMC,091702.000,A,4802.0375,N,00101.7352,W,062.81,0.0,161020,,,E*40
$GPGGA,091712.000,4802.0757,N,00102.2317,W,1,00,,972.7,M,0.0,M,,0000*58
$GPRMC,091712.000,A,4802.0757,N,00102.2317,W,063.83,0.0,161020,,,E*41
$GPGGA,091731.000,4802.1872,N,00103.2015,W,1,00,,964.2,M,0.0,M,,0000*52
$GPRMC,091731.000,A,4802.1872,N,00103.2015,W,064.30,0.0,161020,,,E*46
$GPGGA,091741.000,4802.2539,N,00103.6836,W,1,00,,961.0,M,0.0,M,,0000*5E
$GPRMC,091741.000,A,4802.2539,N,00103.6836,W,062.82,0.0,161020,,,E*42
$GPGGA,091751.000,4802.3050,N,00104.1789,W,1,00,,955.8,M,0.0,M,,0000*50
$GPRMC,091751.000,A,4802.3050,N,00104.1789,W,061.94,0.0,161020,,,E*47
$GPGGA,091801.000,4802.3388,N,00104.6768,W,1,00,,957.1,M,0.0,M,,0000*5F
$GPRMC,091801.000,A,4802.3388,N,00104.6768,W,062.82,0.0,161020,,,E*47
$GPGGA,091811.000,4802.3676,N,00105.1760,W,1,00,,961.4,M,0.0,M,,0000*54
$GPRMC,091811.000,A,4802.3676,N,00105.1760,W,062.60,0.0,161020,,,E*40
$GPGGA,091821.000,4802.3990,N,00105.6760,W,1,00,,968.1,M,0.0,M,,0000*5B
$GPRMC,091821.000,A,4802.3990,N,00105.6760,W,061.76,0.0,161020,,,E*47
$GPGGA,091831.000,4802.4211,N,00106.1761,W,1,00,,964.7,M,0.0,M,,0000*50
$GPRMC,091831.000,A,4802.4211,N,00106.1761,W,061.27,0.0,161020,,,E*42
$GPGGA,091851.000,4802.4520,N,00107.1625,W,1,00,,966.7,M,0.0,M,,0000*51
$GPRMC,091851.000,A,4802.4520,N,00107.1625,W,062.20,0.0,161020,,,E*45
$GPGGA,091902.000,4802.4449,N,00107.6970,W,1,00,,948.3,M,0.0,M,,0000*58
$GPRMC,091902.000,A,4802.4449,N,00107.6970,W,061.22,0.0,161020,,,E*45
$GPGGA,091912.000,4802.4767,N,00108.2055,W,1,00,,975.5,M,0.0,M,,0000*5B
$GPRMC,091912.000,A,4802.4767,N,00108.2055,W,061.92,0.0,161020,,,E*45
$GPGGA,091922.000,4802.5072,N,00108.7016,W,1,00,,959.1,M,0.0,M,,0000*52
$GPRMC,091922.000,A,4802.5072,N,00108.7016,W,061.92,0.0,161020,,,E*46
$GPGGA,091942.000,4802.5826,N,00109.7007,W,1,00,,974.9,M,0.0,M,,0000*5B
$GPRMC,091942.000,A,4802.5826,N,00109.7007,W,062.60,0.0,161020,,,E*46
$GPGGA,091952.000,4802.6045,N,00110.1997,W,1,00,,974.0,M,0.0,M,,0000*53
$GPRMC,091952.000,A,4802.6045,N,00110.1997,W,061.72,0.0,161020,,,E*47
$GPGGA,092011.000,4802.6596,N,00111.1490,W,1,00,,957.7,M,0.0,M,,0000*58
$GPRMC,092011.000,A,4802.6596,N,00111.1490,W,063.40,0.0,161020,,,E*49
$GPGGA,092021.000,4802.7370,N,00111.6427,W,1,00,,968.1,M,0.0,M,,0000*55
$GPRMC,092021.000,A,4802.7370,N,00111.6427,W,060.79,0.0,161020,,,E*47
$GPGGA,092031.000,4802.7858,N,00112.1278,W,1,00,,950.6,M,0.0,M,,0000*51
$GPRMC,092031.000,A,4802.7858,N,00112.1278,W,062.60,0.0,161020,,,E*45
$GPGGA,092041.000,4802.8176,N,00112.6391,W,1,00,,939.6,M,0.0,M,,0000*52
$GPRMC,092041.000,A,4802.8176,N,00112.6391,W,063.05,0.0,161020,,,E*4B
$GPGGA,092052.000,4802.8640,N,00113.1902,W,1,00,,948.7,M,0.0,M,,0000*53
$GPRMC,092052.000,A,4802.8640,N,00113.1902,W,061.99,0.0,161020,,,E*4A
$GPGGA,092111.000,4802.9859,N,00114.1240,W,1,00,,943.0,M,0.0,M,,0000*54
$GPRMC,092111.000,A,4802.9859,N,00114.1240,W,062.73,0.0,161020,,,E*46
$GPGGA,092121.000,4803.0421,N,00114.6130,W,1,00,,924.6,M,0.0,M,,0000*58
$GPRMC,092121.000,A,4803.0421,N,00114.6130,W,061.23,0.0,161020,,,E*4B
$GPGGA,092131.000,4803.0441,N,00115.1153,W,1,00,,937.4,M,0.0,M,,0000*5C
$GPRMC,092131.000,A,4803.0441,N,00115.1153,W,062.02,0.0,161020,,,E*4F
$GPGGA,092142.000,4803.0408,N,00115.6711,W,1,00,,934.6,M,0.0,M,,0000*53
$GPRMC,092142.000,A,4803.0408,N,00115.6711,W,061.51,0.0,161020,,,E*44
$GPGGA,092152.000,4803.0114,N,00116.1466,W,1,00,,939.4,M,0.0,M,,0000*52
$GPRMC,092152.000,A,4803.0114,N,00116.1466,W,061.27,0.0,161020,,,E*4B
$GPGGA,092211.000,4802.9859,N,00117.0739,W,1,00,,942.5,M,0.0,M,,0000*5A
$GPRMC,092211.000,A,4802.9859,N,00117.0739,W,061.06,0.0,161020,,,E*4D
$GPGGA,092222.000,4802.9622,N,00117.6111,W,1,00,,969.2,M,0.0,M,,0000*5C
$GPRMC,092222.000,A,4802.9622,N,00117.6111,W,060.71,0.0,161020,,,E*44
$GPGGA,092242.000,4802.9144,N,00118.5884,W,1,00,,974.0,M,0.0,M,,0000*5A
$GPRMC,092242.000,A,4802.9144,N,00118.5884,W,061.45,0.0,161020,,,E*4A
$GPGGA,092301.000,4802.8748,N,00119.5359,W,1,00,,967.9,M,0.0,M,,0000*56
$GPRMC,092301.000,A,4802.8748,N,00119.5359,W,061.55,0.0,161020,,,E*4C
$GPGGA,092321.000,4802.8542,N,00120.5042,W,1,00,,968.7,M,0.0,M,,0000*5E
$GPRMC,092321.000,A,4802.8542,N,00120.5042,W,061.40,0.0,161020,,,E*41
$GPGGA,092332.000,4802.8640,N,00121.0404,W,1,00,,960.0,M,0.0,M,,0000*50
$GPRMC,092332.000,A,4802.8640,N,00121.0404,W,060.70,0.0,161020,,,E*42
$GPGGA,092351.000,4802.8710,N,00121.9728,W,1,00,,999.3,M,0.0,M,,0000*50
$GPRMC,092351.000,A,4802.8710,N,00121.9728,W,060.82,0.0,161020,,,E*4A
$GPGGA,092410.000,4802.9268,N,00122.9375,W,1,00,,979.3,M,0.0,M,,0000*58
$GPRMC,092410.000,A,4802.9268,N,00122.9375,W,062.33,0.0,161020,,,E*44
$GPGGA,092421.000,4802.9543,N,00123.4841,W,1,00,,986.3,M,0.0,M,,0000*54
$GPRMC,092421.000,A,4802.9543,N,00123.4841,W,062.19,0.0,161020,,,E*40
$GPGGA,092431.000,4802.9815,N,00123.9892,W,1,00,,995.9,M,0.0,M,,0000*50
$GPRMC,092431.000,A,4802.9815,N,00123.9892,W,062.37,0.0,161020,,,E*40
$GPGGA,092441.000,4802.9998,N,00124.4756,W,1,00,,982.9,M,0.0,M,,0000*58
$GPRMC,092441.000,A,4802.9998,N,00124.4756,W,061.69,0.0,161020,,,E*46
$GPGGA,092452.000,4803.0090,N,00125.0310,W,1,00,,990.2,M,0.0,M,,0000*58
$GPRMC,092452.000,A,4803.0090,N,00125.0310,W,062.39,0.0,161020,,,E*48
$GPGGA,092511.000,4803.0206,N,00125.9763,W,1,00,,992.9,M,0.0,M,,0000*53
$GPRMC,092511.000,A,4803.0206,N,00125.9763,W,061.39,0.0,161020,,,E*49
$GPGGA,092521.000,4803.0549,N,00126.4570,W,1,00,,1021.5,M,0.0,M,,0000*6E
$GPRMC,092521.000,A,4803.0549,N,00126.4570,W,060.89,0.0,161020,,,E*42
$GPGGA,092542.000,4803.1459,N,00127.4804,W,1,00,,993.0,M,0.0,M,,0000*51
$GPRMC,092542.000,A,4803.1459,N,00127.4804,W,060.79,0.0,161020,,,E*46
$GPGGA,092601.000,4803.2118,N,00128.4227,W,1,00,,1013.1,M,0.0,M,,0000*63
$GPRMC,092601.000,A,4803.2118,N,00128.4227,W,062.31,0.0,161020,,,E*4B
$GPGGA,092611.000,4803.2221,N,00128.9281,W,1,00,,997.5,M,0.0,M,,0000*5A
$GPRMC,092611.000,A,4803.2221,N,00128.9281,W,062.95,0.0,161020,,,E*4C
$GPGGA,092622.000,4803.2285,N,00129.4917,W,1,00,,993.7,M,0.0,M,,0000*5A
$GPRMC,092622.000,A,4803.2285,N,00129.4917,W,063.69,0.0,161020,,,E*48
$GPGGA,092632.000,4803.2160,N,00130.0036,W,1,00,,986.3,M,0.0,M,,0000*55
$GPRMC,092632.000,A,4803.2160,N,00130.0036,W,063.86,0.0,161020,,,E*46
$GPGGA,092651.000,4803.1447,N,00130.9802,W,1,00,,967.0,M,0.0,M,,0000*59
$GPRMC,092651.000,A,4803.1447,N,00130.9802,W,065.48,0.0,161020,,,E*42
$GPGGA,092701.000,4803.0659,N,00131.4978,W,1,00,,966.3,M,0.0,M,,0000*53
$GPRMC,092701.000,A,4803.0659,N,00131.4978,W,066.57,0.0,161020,,,E*47
$GPGGA,092711.000,4802.9783,N,00132.0140,W,1,00,,944.3,M,0.0,M,,0000*58
$GPRMC,092711.000,A,4802.9783,N,00132.0140,W,066.50,0.0,161020,,,E*4B
$GPGGA,092722.000,4802.8757,N,00132.5824,W,1,00,,936.9,M,0.0,M,,0000*51
$GPRMC,092722.000,A,4802.8757,N,00132.5824,W,065.89,0.0,161020,,,E*4A
$GPGGA,092741.000,4802.6659,N,00133.5467,W,1,00,,881.5,M,0.0,M,,0000*5E
$GPRMC,092741.000,A,4802.6659,N,00133.5467,W,067.65,0.0,161020,,,E*44
$GPGGA,092751.000,4802.5356,N,00134.0796,W,1,00,,838.1,M,0.0,M,,0000*5F
$GPRMC,092751.000,A,4802.5356,N,00134.0796,W,069.13,0.0,161020,,,E*4C
$GPGGA,092801.000,4802.4099,N,00134.5978,W,1,00,,787.8,M,0.0,M,,0000*5D
$GPRMC,092801.000,A,4802.4099,N,00134.5978,W,067.77,0.0,161020,,,E*40
$GPGGA,092811.000,4802.2539,N,00135.0801,W,1,00,,768.5,M,0.0,M,,0000*52
$GPRMC,092811.000,A,4802.2539,N,00135.0801,W,064.54,0.0,161020,,,E*41
$GPGGA,092821.000,4802.1256,N,00135.5431,W,1,00,,686.2,M,0.0,M,,0000*50
$GPRMC,092821.000,A,4802.1256,N,00135.5431,W,061.94,0.0,161020,,,E*4C
$GPGGA,092832.000,4802.0008,N,00136.0551,W,1,00,,616.9,M,0.0,M,,0000*59
$GPRMC,092832.000,A,4802.0008,N,00136.0551,W,060.72,0.0,161020,,,E*4E
$GPGGA,092842.000,4801.9071,N,00136.5135,W,1,00,,582.3,M,0.0,M,,0000*5D
$GPRMC,092842.000,A,4801.9071,N,00136.5135,W,058.11,0.0,161020,,,E*40
$GPGGA,092852.000,4801.8335,N,00136.9509,W,1,00,,535.8,M,0.0,M,,0000*5E
$GPRMC,092852.000,A,4801.8335,N,00136.9509,W,055.89,0.0,161020,,,E*48
$GPGGA,092911.000,4801.7069,N,00137.7353,W,1,00,,464.2,M,0.0,M,,0000*54
$GPRMC,092911.000,A,4801.7069,N,00137.7353,W,052.60,0.0,161020,,,E*4D
$GPGGA,092931.000,4801.6287,N,00138.5427,W,1,00,,418.8,M,0.0,M,,0000*5D
$GPRMC,092931.000,A,4801.6287,N,00138.5427,W,047.92,0.0,161020,,,E*4C
$GPGGA,092942.000,4801.6130,N,00138.9741,W,1,00,,391.4,M,0.0,M,,0000*53
$GPRMC,092942.000,A,4801.6130,N,00138.9741,W,048.66,0.0,161020,,,E*4C
$GPGGA,093002.000,4801.6033,N,00139.7595,W,1,00,,349.4,M,0.0,M,,0000*5C
$GPRMC,093002.000,A,4801.6033,N,00139.7595,W,048.61,0.0,161020,,,E*41
$GPGGA,093012.000,4801.5730,N,00140.1463,W,1,00,,339.4,M,0.0,M,,0000*5D
$GPRMC,093012.000,A,4801.5730,N,00140.1463,W,047.17,0.0,161020,,,E*49
$GPGGA,093031.000,4801.5216,N,00140.8650,W,1,00,,334.1,M,0.0,M,,0000*5E
$GPRMC,093031.000,A,4801.5216,N,00140.8650,W,047.57,0.0,161020,,,E*46
$GPGGA,093042.000,4801.4996,N,00141.2826,W,1,00,,314.8,M,0.0,M,,0000*57
$GPRMC,093042.000,A,4801.4996,N,00141.2826,W,049.09,0.0,161020,,,E*41
$GPGGA,093101.000,4801.4938,N,00142.0245,W,1,00,,325.8,M,0.0,M,,0000*59
$GPRMC,093101.000,A,4801.4938,N,00142.0245,W,048.02,0.0,161020,,,E*47
$GPGGA,093111.000,4801.5681,N,00142.3796,W,1,00,,352.1,M,0.0,M,,0000*55
$GPRMC,093111.000,A,4801.5681,N,00142.3796,W,046.13,0.0,161020,,,E*4C
$GPGGA,093132.000,4801.9816,N,00142.8515,W,1,00,,328.9,M,0.0,M,,0000*5F
$GPRMC,093132.000,A,4801.9816,N,00142.8515,W,048.24,0.0,161020,,,E*49
$GPGGA,093151.000,4802.4418,N,00143.0132,W,1,00,,278.3,M,0.0,M,,0000*50
$GPRMC,093151.000,A,4802.4418,N,00143.0132,W,044.92,0.0,161020,,,E*49
$GPGGA,093202.000,4802.7131,N,00143.0182,W,1,00,,249.3,M,0.0,M,,0000*51
$GPRMC,093202.000,A,4802.7131,N,00143.0182,W,045.60,0.0,161020,,,E*46
$GPGGA,093212.000,4802.9399,N,00143.0032,W,1,00,,208.6,M,0.0,M,,0000*54
$GPRMC,093212.000,A,4802.9399,N,00143.0032,W,042.62,0.0,161020,,,E*46
$GPGGA,093231.000,4803.2743,N,00143.3719,W,1,00,,155.9,M,0.0,M,,0000*55
$GPRMC,093231.000,A,4803.2743,N,00143.3719,W,040.30,0.0,161020,,,E*46
$GPGGA,093251.000,4803.6319,N,00143.7663,W,1,00,,125.6,M,0.0,M,,0000*5C
$GPRMC,093251.000,A,4803.6319,N,00143.7663,W,041.49,0.0,161020,,,E*48
$GPGGA,093301.000,4803.7890,N,00143.9517,W,1,00,,91.5,M,0.0,M,,0000*60
$GPRMC,093301.000,A,4803.7890,N,00143.9517,W,037.14,0.0,161020,,,E*40
$GPGGA,093311.000,4803.9345,N,00144.1115,W,1,00,,92.5,M,0.0,M,,0000*66
$GPRMC,093311.000,A,4803.9345,N,00144.1115,W,029.77,0.0,161020,,,E*4F
$GPGGA,093321.000,4804.0462,N,00144.2553,W,1,00,,91.8,M,0.0,M,,0000*62
$GPRMC,093321.000,A,4804.0462,N,00144.2553,W,023.70,0.0,161020,,,E*48
$GPGGA,093340.000,4804.1566,N,00144.3689,W,1,00,,62.4,M,0.0,M,,0000*64
$GPRMC,093340.000,A,4804.1566,N,00144.3689,W,004.39,0.0,161020,,,E*46
$GPGGA,093351.000,4804.1488,N,00144.3670,W,1,00,,75.2,M,0.0,M,,0000*63
$GPRMC,093351.000,A,4804.1488,N,00144.3670,W,004.71,0.0,161020,,,E*4D
$GPGGA,093402.000,4804.0839,N,00144.3007,W,1,00,,77.1,M,0.0,M,,0000*62
$GPRMC,093402.000,A,4804.0839,N,00144.3007,W,014.25,0.0,161020,,,E*4D
$GPGGA,093421.000,4803.9423,N,00144.1394,W,1,00,,77.6,M,0.0,M,,0000*66
$GPRMC,093421.000,A,4803.9423,N,00144.1394,W,016.29,0.0,161020,,,E*40
$GPGGA,093431.000,4803.8919,N,00144.0730,W,1,00,,75.9,M,0.0,M,,0000*64
$GPRMC,093431.000,A,4803.8919,N,00144.0730,W,005.90,0.0,161020,,,E*4F
$GPGGA,093452.000,4803.9403,N,00143.9948,W,1,00,,92.9,M,0.0,M,,0000*60
$GPRMC,093452.000,A,4803.9403,N,00143.9948,W,007.38,0.0,161020,,,E*42
$GPGGA,093511.000,4803.9298,N,00143.9107,W,1,00,,67.8,M,0.0,M,,0000*6A
$GPRMC,093511.000,A,4803.9298,N,00143.9107,W,009.20,0.0,161020,,,E*44
$GPGGA,093522.000,4803.8803,N,00143.8584,W,1,00,,89.5,M,0.0,M,,0000*60
$GPRMC,093522.000,A,4803.8803,N,00143.8584,W,011.03,0.0,161020,,,E*4B
$GPGGA,093541.000,4803.8496,N,00143.8437,W,1,00,,87.1,M,0.0,M,,0000*66
$GPRMC,093541.000,A,4803.8496,N,00143.8437,W,000.40,0.0,161020,,,E*40
$GPGGA,093551.000,4803.8409,N,00143.8453,W,1,00,,72.5,M,0.0,M,,0000*6D
$GPRMC,093551.000,A,4803.8409,N,00143.8453,W,004.37,0.0,161020,,,E*41
$GPGGA,093601.000,4803.7895,N,00143.8562,W,1,00,,92.0,M,0.0,M,,0000*65
$GPRMC,093601.000,A,4803.7895,N,00143.8562,W,009.66,0.0,161020,,,E*4B
$GPGGA,093612.000,4803.7439,N,00143.8964,W,1,00,,87.9,M,0.0,M,,0000*6A
$GPRMC,093612.000,A,4803.7439,N,00143.8964,W,009.62,0.0,161020,,,E*4D
$GPGGA,093631.000,4803.7631,N,00144.0172,W,1,00,,78.2,M,0.0,M,,0000*6A
$GPRMC,093631.000,A,4803.7631,N,00144.0172,W,007.05,0.0,161020,,,E*49
$GPGGA,093641.000,4803.7662,N,00144.0692,W,1,00,,77.5,M,0.0,M,,0000*6A
$GPRMC,093641.000,A,4803.7662,N,00144.0692,W,004.43,0.0,161020,,,E*40
$GPGGA,093700.000,4803.7490,N,00144.0709,W,1,00,,80.6,M,0.0,M,,0000*69
$GPRMC,093700.000,A,4803.7490,N,00144.0709,W,000.34,0.0,161020,,,E*4C
$GPGGA,093721.000,4803.7465,N,00144.0674,W,1,00,,90.0,M,0.0,M,,0000*6C
$GPRMC,093721.000,A,4803.7465,N,00144.0674,W,000.55,0.0,161020,,,E*49
