$GPGGA,090400.000,4804.0787,N,00143.8153,W,1,00,,71.5,M,0.0,M,,0000*67
$GPRMC,090400.000,A,4804.0787,N,00143.8153,W,000.00,0.0,151020,,,E*4B
$GPGGA,090419.000,4804.0788,N,00143.8212,W,1,00,,81.1,M,0.0,M,,0000*6D
$GPRMC,090419.000,A,4804.0788,N,00143.8212,W,000.48,0.0,151020,,,E*46
$GPGGA,091110.000,4804.0829,N,00143.8264,W,1,00,,83.3,M,0.0,M,,0000*65
$GPRMC,091110.000,A,4804.0829,N,00143.8264,W,002.16,0.0,151020,,,E*47
$GPGGA,091129.000,4804.0961,N,00143.8324,W,1,00,,88.6,M,0.0,M,,0000*69
$GPRMC,091129.000,A,4804.0961,N,00143.8324,W,003.98,0.0,151020,,,E*42
$GPGGA,091150.000,4804.0937,N,00143.8359,W,1,00,,91.8,M,0.0,M,,0000*68
$GPRMC,091150.000,A,4804.0937,N,00143.8359,W,000.37,0.0,151020,,,E*43
$GPGGA,091259.000,4804.0729,N,00143.8515,W,1,00,,81.2,M,0.0,M,,0000*66
$GPRMC,091259.000,A,4804.0729,N,00143.8515,W,021.51,0.0,151020,,,E*45
$GPGGA,091318.000,4803.9931,N,00143.9037,W,1,00,,74.9,M,0.0,M,,0000*6E
$GPRMC,091318.000,A,4803.9931,N,00143.9037,W,030.88,0.0,151020,,,E*48
$GPGGA,091330.000,4803.9510,N,00143.9658,W,1,00,,43.5,M,0.0,M,,0000*6C
$GPRMC,091330.000,A,4803.9510,N,00143.9658,W,025.36,0.0,151020,,,E*43
$GPGGA,091341.000,4803.9384,N,00143.9764,W,1,00,,69.5,M,0.0,M,,0000*67
$GPRMC,091341.000,A,4803.9384,N,00143.9764,W,012.23,0.0,151020,,,E*40
$GPGGA,091400.000,4803.9523,N,00143.9819,W,1,00,,73.8,M,0.0,M,,0000*6D
$GPRMC,091400.000,A,4803.9523,N,00143.9819,W,016.27,0.0,151020,,,E*4C
$GPGGA,091419.000,4803.9328,N,00144.0128,W,1,00,,78.1,M,0.0,M,,0000*6F
$GPRMC,091419.000,A,4803.9328,N,00144.0128,W,000.55,0.0,151020,,,E*4E
$GPGGA,091458.000,4803.9351,N,00144.0090,W,1,00,,80.7,M,0.0,M,,0000*67
$GPRMC,091458.000,A,4803.9351,N,00144.0090,W,001.30,0.0,151020,,,E*45
$GPGGA,091819.000,4803.9223,N,00144.0273,W,1,00,,89.5,M,0.0,M,,0000*6E
$GPRMC,091819.000,A,4803.9223,N,00144.0273,W,021.31,0.0,151020,,,E*44
$GPGGA,091829.000,4803.8878,N,00144.0640,W,1,00,,84.6,M,0.0,M,,0000*62
$GPRMC,091829.000,A,4803.8878,N,00144.0640,W,021.51,0.0,151020,,,E*40
$GPGGA,091839.000,4803.8567,N,00144.0327,W,1,00,,76.8,M,0.0,M,,0000*67
$GPRMC,091839.000,A,4803.8567,N,00144.0327,W,024.74,0.0,151020,,,E*44
$GPGGA,091850.000,4803.8371,N,00144.0024,W,1,00,,82.4,M,0.0,M,,0000*6E
$GPRMC,091850.000,A,4803.8371,N,00144.0024,W,009.30,0.0,151020,,,E*45
$GPGGA,091900.000,4803.8347,N,00144.0078,W,1,00,,71.6,M,0.0,M,,0000*68
$GPRMC,091900.000,A,4803.8347,N,00144.0078,W,008.05,0.0,151020,,,E*4A
$GPGGA,091920.000,4803.8405,N,00144.0141,W,1,00,,78.5,M,0.0,M,,0000*6A
$GPRMC,091920.000,A,4803.8405,N,00144.0141,W,000.67,0.0,151020,,,E*4E
$GPGGA,092020.000,4803.8550,N,00144.0324,W,1,00,,93.2,M,0.0,M,,0000*62
$GPRMC,092020.000,A,4803.8550,N,00144.0324,W,029.61,0.0,151020,,,E*49
$GPGGA,092049.000,4804.2041,N,00144.4471,W,1,00,,120.2,M,0.0,M,,0000*5F
$GPRMC,092049.000,A,4804.2041,N,00144.4471,W,133.13,0.0,151020,,,E*42
$GPGGA,092100.000,4804.3788,N,00144.6790,W,1,00,,159.8,M,0.0,M,,0000*5A
$GPRMC,092100.000,A,4804.3788,N,00144.6790,W,140.18,0.0,151020,,,E*4C
$GPGGA,092119.000,4804.6868,N,00145.0613,W,1,00,,218.4,M,0.0,M,,0000*51
$GPRMC,092119.000,A,4804.6868,N,00145.0613,W,140.36,0.0,151020,,,E*41
$GPGGA,092129.000,4804.8785,N,00145.1624,W,1,00,,217.1,M,0.0,M,,0000*5F
$GPRMC,092129.000,A,4804.8785,N,00145.1624,W,136.55,0.0,151020,,,E*41
$GPGGA,092140.000,4805.0872,N,00145.0815,W,1,00,,245.9,M,0.0,M,,0000*5C
$GPRMC,092140.000,A,4805.0872,N,00145.0815,W,126.65,0.0,151020,,,E*4F
$GPGGA,092150.000,4805.1916,N,00144.7787,W,1,00,,295.9,M,0.0,M,,0000*50
$GPRMC,092150.000,A,4805.1916,N,00144.7787,W,155.66,0.0,151020,,,E*49
$GPGGA,092210.000,4805.0514,N,00144.0985,W,1,00,,350.6,M,0.0,M,,0000*54
$GPRMC,092210.000,A,4805.0514,N,00144.0985,W,170.03,0.0,151020,,,E*4E
$GPGGA,092229.000,4804.8514,N,00143.4732,W,1,00,,394.6,M,0.0,M,,0000*5E
$GPRMC,092229.000,A,4804.8514,N,00143.4732,W,162.83,0.0,151020,,,E*47
$GPGGA,092239.000,4804.7643,N,00143.1250,W,1,00,,419.4,M,0.0,M,,0000*55
$GPRMC,092239.000,A,4804.7643,N,00143.1250,W,164.63,0.0,151020,,,E*44
$GPGGA,092259.000,4804.6423,N,00142.4124,W,1,00,,475.3,M,0.0,M,,0000*5F
$GPRMC,092259.000,A,4804.6423,N,00142.4124,W,161.68,0.0,151020,,,E*4D
$GPGGA,092309.000,4804.5846,N,00142.0685,W,1,00,,514.6,M,0.0,M,,0000*5C
$GPRMC,092309.000,A,4804.5846,N,00142.0685,W,152.53,0.0,151020,,,E*45
$GPGGA,092320.000,4804.5306,N,00141.7015,W,1,00,,559.4,M,0.0,M,,0000*58
$GPRMC,092320.000,A,4804.5306,N,00141.7015,W,159.77,0.0,151020,,,E*47
$GPGGA,092339.000,4804.3983,N,00141.0417,W,1,00,,618.2,M,0.0,M,,0000*50
$GPRMC,092339.000,A,4804.3983,N,00141.0417,W,160.63,0.0,151020,,,E*40
$GPGGA,092358.000,4804.2519,N,00140.4268,W,1,00,,660.0,M,0.0,M,,0000*5F
$GPRMC,092358.000,A,4804.2519,N,00140.4268,W,154.55,0.0,151020,,,E*40
$GPGGA,092409.000,4804.1693,N,00140.0692,W,1,00,,704.7,M,0.0,M,,0000*5F
$GPRMC,092409.000,A,4804.1693,N,00140.0692,W,153.04,0.0,151020,,,E*47
$GPGGA,092440.000,4803.8931,N,00139.0864,W,1,00,,771.5,M,0.0,M,,0000*52
$GPRMC,092440.000,A,4803.8931,N,00139.0864,W,157.72,0.0,151020,,,E*4F
$GPGGA,092450.000,4803.7811,N,00138.7655,W,1,00,,792.8,M,0.0,M,,0000*55
$GPRMC,092450.000,A,4803.7811,N,00138.7655,W,161.14,0.0,151020,,,E*4D
$GPGGA,092500.000,4803.6746,N,00138.4528,W,1,00,,836.0,M,0.0,M,,0000*5E
$GPRMC,092500.000,A,4803.6746,N,00138.4528,W,153.11,0.0,151020,,,E*4B
$GPGGA,092510.000,4803.5638,N,00138.1501,W,1,00,,861.7,M,0.0,M,,0000*5F
$GPRMC,092510.000,A,4803.5638,N,00138.1501,W,157.36,0.0,151020,,,E*4E
$GPGGA,092529.000,4803.3392,N,00137.5493,W,1,00,,917.4,M,0.0,M,,0000*54
$GPRMC,092529.000,A,4803.3392,N,00137.5493,W,162.07,0.0,151020,,,E*42
$GPGGA,092540.000,4803.2086,N,00137.2024,W,1,00,,931.5,M,0.0,M,,0000*56
$GPRMC,092540.000,A,4803.2086,N,00137.2024,W,163.66,0.0,151020,,,E*43
$GPGGA,092559.000,4802.9908,N,00136.5525,W,1,00,,940.4,M,0.0,M,,0000*5E
$GPRMC,092559.000,A,4802.9908,N,00136.5525,W,173.56,0.0,151020,,,E*4E
$GPGGA,092609.000,4802.8817,N,00136.1833,W,1,00,,938.5,M,0.0,M,,0000*56
$GPRMC,092609.000,A,4802.8817,N,00136.1833,W,183.53,0.0,151020,,,E*42
$GPGGA,092629.000,4802.6097,N,00135.4416,W,1,00,,950.3,M,0.0,M,,0000*5F
$GPRMC,092629.000,A,4802.6097,N,00135.4416,W,193.28,0.0,151020,,,E*4E
$GPGGA,092639.000,4802.4645,N,00135.0789,W,1,00,,961.6,M,0.0,M,,0000*53
$GPRMC,092639.000,A,4802.4645,N,00135.0789,W,184.50,0.0,151020,,,E*4C
$GPGGA,092650.000,4802.3565,N,00134.6781,W,1,00,,949.8,M,0.0,M,,0000*51
$GPRMC,092650.000,A,4802.3565,N,00134.6781,W,178.34,0.0,151020,,,E*4B
$GPGGA,092700.000,4802.2657,N,00134.2854,W,1,00,,949.8,M,0.0,M,,0000*55
$GPRMC,092700.000,A,4802.2657,N,00134.2854,W,182.02,0.0,151020,,,E*4F
$GPGGA,092720.000,4802.0896,N,00133.5298,W,1,00,,944.1,M,0.0,M,,0000*58
$GPRMC,092720.000,A,4802.0896,N,00133.5298,W,178.81,0.0,151020,,,E*48
$GPGGA,092730.000,4802.0112,N,00133.1290,W,1,00,,944.5,M,0.0,M,,0000*54
$GPRMC,092730.000,A,4802.0112,N,00133.1290,W,181.62,0.0,151020,,,E*4B
$GPGGA,092750.000,4801.8509,N,00132.3761,W,1,00,,904.1,M,0.0,M,,0000*5F
$GPRMC,092750.000,A,4801.8509,N,00132.3761,W,176.54,0.0,151020,,,E*4D
$GPGGA,092800.000,4801.8034,N,00131.9883,W,1,00,,895.1,M,0.0,M,,0000*5D
$GPRMC,092800.000,A,4801.8034,N,00131.9883,W,167.69,0.0,151020,,,E*48
$GPGGA,092820.000,4801.7848,N,00131.2563,W,1,00,,894.2,M,0.0,M,,0000*59
$GPRMC,092820.000,A,4801.7848,N,00131.2563,W,173.41,0.0,151020,,,E*41
$GPGGA,092830.000,4801.7827,N,00130.8640,W,1,00,,907.8,M,0.0,M,,0000*59
$GPRMC,092830.000,A,4801.7827,N,00130.8640,W,168.48,0.0,151020,,,E*43
$GPGGA,092850.000,4801.8846,N,00130.1277,W,1,00,,914.1,M,0.0,M,,0000*55
$GPRMC,092850.000,A,4801.8846,N,00130.1277,W,165.17,0.0,151020,,,E*43
$GPGGA,092909.000,4802.0229,N,00129.4707,W,1,00,,873.3,M,0.0,M,,0000*5D
$GPRMC,092909.000,A,4802.0229,N,00129.4707,W,162.50,0.0,151020,,,E*4D
$GPGGA,092919.000,4802.0876,N,00129.1280,W,1,00,,898.2,M,0.0,M,,0000*57
$GPRMC,092919.000,A,4802.0876,N,00129.1280,W,164.09,0.0,151020,,,E*49
$GPGGA,092929.000,4802.1653,N,00128.7964,W,1,00,,906.5,M,0.0,M,,0000*5B
$GPRMC,092929.000,A,4802.1653,N,00128.7964,W,158.18,0.0,151020,,,E*4B
$GPGGA,092950.000,4802.3610,N,00128.1119,W,1,00,,907.9,M,0.0,M,,0000*59
$GPRMC,092950.000,A,4802.3610,N,00128.1119,W,151.81,0.0,151020,,,E*4D
$GPGGA,093000.000,4802.4524,N,00127.8034,W,1,00,,888.8,M,0.0,M,,0000*58
$GPRMC,093000.000,A,4802.4524,N,00127.8034,W,153.47,0.0,151020,,,E*43
$GPGGA,093010.000,4802.5651,N,00127.4977,W,1,00,,901.8,M,0.0,M,,0000*5B
$GPRMC,093010.000,A,4802.5651,N,00127.4977,W,154.55,0.0,151020,,,E*44
$GPGGA,093030.000,4802.7597,N,00126.8700,W,1,00,,869.1,M,0.0,M,,0000*57
$GPRMC,093030.000,A,4802.7597,N,00126.8700,W,159.48,0.0,151020,,,E*4F
$GPGGA,093040.000,4802.8654,N,00126.5495,W,1,00,,889.6,M,0.0,M,,0000*58
$GPRMC,093040.000,A,4802.8654,N,00126.5495,W,160.02,0.0,151020,,,E*4D
$GPGGA,093101.000,4803.0879,N,00125.8799,W,1,00,,895.9,M,0.0,M,,0000*57
$GPRMC,093101.000,A,4803.0879,N,00125.8799,W,151.16,0.0,151020,,,E*47
$GPGGA,093120.000,4803.2798,N,00125.2742,W,1,00,,873.4,M,0.0,M,,0000*5F
$GPRMC,093120.000,A,4803.2798,N,00125.2742,W,164.66,0.0,151020,,,E*4B
$GPGGA,093140.000,4803.3861,N,00124.5814,W,1,00,,923.9,M,0.0,M,,0000*52
$GPRMC,093140.000,A,4803.3861,N,00124.5814,W,154.30,0.0,151020,,,E*4F
$GPGGA,093200.000,4803.4542,N,00123.9003,W,1,00,,914.2,M,0.0,M,,0000*54
$GPRMC,093200.000,A,4803.4542,N,00123.9003,W,161.50,0.0,151020,,,E*46
$GPGGA,093210.000,4803.4708,N,00123.5472,W,1,00,,926.4,M,0.0,M,,0000*50
$GPRMC,093210.000,A,4803.4708,N,00123.5472,W,160.85,0.0,151020,,,E*4C
$GPGGA,093220.000,4803.4498,N,00123.1783,W,1,00,,938.3,M,0.0,M,,0000*58
$GPRMC,093220.000,A,4803.4498,N,00123.1783,W,167.58,0.0,151020,,,E*4B
$GPGGA,093239.000,4803.3564,N,00122.4622,W,1,00,,935.6,M,0.0,M,,0000*53
$GPRMC,093239.000,A,4803.3564,N,00122.4622,W,175.32,0.0,151020,,,E*47
$GPGGA,093250.000,4803.3002,N,00122.0242,W,1,00,,946.1,M,0.0,M,,0000*5C
$GPRMC,093250.000,A,4803.3002,N,00122.0242,W,181.80,0.0,151020,,,E*49
$GPGGA,093300.000,4803.2342,N,00121.6384,W,1,00,,943.9,M,0.0,M,,0000*5D
$GPRMC,093300.000,A,4803.2342,N,00121.6384,W,174.53,0.0,151020,,,E*41
$GPGGA,093320.000,4803.1455,N,00120.8459,W,1,00,,930.5,M,0.0,M,,0000*5D
$GPRMC,093320.000,A,4803.1455,N,00120.8459,W,182.81,0.0,151020,,,E*4F
$GPGGA,093339.000,4803.0318,N,00120.1195,W,1,00,,932.2,M,0.0,M,,0000*53
$GPRMC,093339.000,A,4803.0318,N,00120.1195,W,188.24,0.0,151020,,,E*41
$GPGGA,093350.000,4802.8965,N,00119.6813,W,1,00,,936.5,M,0.0,M,,0000*5C
$GPRMC,093350.000,A,4802.8965,N,00119.6813,W,190.33,0.0,151020,,,E*42
$GPGGA,093410.000,4802.6338,N,00118.9403,W,1,00,,942.1,M,0.0,M,,0000*57
$GPRMC,093410.000,A,4802.6338,N,00118.9403,W,188.57,0.0,151020,,,E*45
$GPGGA,093420.000,4802.5098,N,00118.5497,W,1,00,,954.6,M,0.0,M,,0000*5F
$GPRMC,093420.000,A,4802.5098,N,00118.5497,W,186.98,0.0,151020,,,E*40
$GPGGA,093439.000,4802.3403,N,00117.8152,W,1,00,,946.6,M,0.0,M,,0000*5A
$GPRMC,093439.000,A,4802.3403,N,00117.8152,W,182.02,0.0,151020,,,E*41
$GPGGA,093449.000,4802.2612,N,00117.4087,W,1,00,,940.3,M,0.0,M,,0000*58
$GPRMC,093449.000,A,4802.2612,N,00117.4087,W,186.59,0.0,151020,,,E*4A
$GPGGA,093459.000,4802.1870,N,00117.0237,W,1,00,,929.1,M,0.0,M,,0000*50
$GPRMC,093459.000,A,4802.1870,N,00117.0237,W,183.85,0.0,151020,,,E*4B
$GPGGA,093510.000,4802.1017,N,00116.5952,W,1,00,,941.4,M,0.0,M,,0000*52
$GPRMC,093510.000,A,4802.1017,N,00116.5952,W,180.50,0.0,151020,,,E*49
$GPGGA,093530.000,4801.9331,N,00115.8077,W,1,00,,934.6,M,0.0,M,,0000*5C
$GPRMC,093530.000,A,4801.9331,N,00115.8077,W,184.14,0.0,151020,,,E*43
$GPGGA,093549.000,4801.7248,N,00115.0834,W,1,00,,959.1,M,0.0,M,,0000*58
$GPRMC,093549.000,A,4801.7248,N,00115.0834,W,181.91,0.0,151020,,,E*43
$GPGGA,093559.000,4801.6781,N,00114.6861,W,1,00,,955.3,M,0.0,M,,0000*51
$GPRMC,093559.000,A,4801.6781,N,00114.6861,W,179.10,0.0,151020,,,E*4A
$GPGGA,093610.000,4801.6448,N,00114.2453,W,1,00,,948.2,M,0.0,M,,0000*5D
$GPRMC,093610.000,A,4801.6448,N,00114.2453,W,178.13,0.0,151020,,,E*49
$GPGGA,093620.000,4801.6053,N,00113.8413,W,1,00,,919.0,M,0.0,M,,0000*5F
$GPRMC,093620.000,A,4801.6053,N,00113.8413,W,178.27,0.0,151020,,,E*4A
$GPGGA,093640.000,4801.5168,N,00113.0822,W,1,00,,931.9,M,0.0,M,,0000*56
$GPRMC,093640.000,A,4801.5168,N,00113.0822,W,175.54,0.0,151020,,,E*49
$GPGGA,093700.000,4801.4605,N,00112.3166,W,1,00,,930.4,M,0.0,M,,0000*59
$GPRMC,093700.000,A,4801.4605,N,00112.3166,W,179.57,0.0,151020,,,E*45
$GPGGA,093720.000,4801.3338,N,00111.4757,W,1,00,,889.2,M,0.0,M,,0000*52
$GPRMC,093720.000,A,4801.3338,N,00111.4757,W,199.62,0.0,151020,,,E*43
$GPGGA,093730.000,4801.2587,N,00111.0589,W,1,00,,880.1,M,0.0,M,,0000*5F
$GPRMC,093730.000,A,4801.2587,N,00111.0589,W,185.33,0.0,151020,,,E*4D
$GPGGA,093750.000,4801.1706,N,00110.2678,W,1,00,,857.0,M,0.0,M,,0000*54
$GPRMC,093750.000,A,4801.1706,N,00110.2678,W,174.24,0.0,151020,,,E*45
$GPGGA,093800.000,4801.1274,N,00109.8909,W,1,00,,878.3,M,0.0,M,,0000*5B
$GPRMC,093800.000,A,4801.1274,N,00109.8909,W,172.04,0.0,151020,,,E*40
$GPGGA,093819.000,4801.0558,N,00109.1935,W,1,00,,882.0,M,0.0,M,,0000*5B
$GPRMC,093819.000,A,4801.0558,N,00109.1935,W,169.31,0.0,151020,,,E*4A
$GPGGA,093830.000,4801.0213,N,00108.7969,W,1,00,,873.0,M,0.0,M,,0000*58
$GPRMC,093830.000,A,4801.0213,N,00108.7969,W,165.20,0.0,151020,,,E*4B
$GPGGA,093849.000,4800.9591,N,00108.0913,W,1,00,,880.4,M,0.0,M,,0000*51
$GPRMC,093849.000,A,4800.9591,N,00108.0913,W,166.90,0.0,151020,,,E*42
$GPGGA,093900.000,4800.9614,N,00107.6811,W,1,00,,883.0,M,0.0,M,,0000*5E
$GPRMC,093900.000,A,4800.9614,N,00107.6811,W,163.40,0.0,151020,,,E*42
$GPGGA,093919.000,4801.0037,N,00106.9869,W,1,00,,903.1,M,0.0,M,,0000*50
$GPRMC,093919.000,A,4801.0037,N,00106.9869,W,167.58,0.0,151020,,,E*49
$GPGGA,093929.000,4801.0182,N,00106.6188,W,1,00,,888.7,M,0.0,M,,0000*51
$GPRMC,093929.000,A,4801.0182,N,00106.6188,W,168.52,0.0,151020,,,E*49
$GPGGA,093939.000,4801.0020,N,00106.2392,W,1,00,,906.6,M,0.0,M,,0000*52
$GPRMC,093939.000,A,4801.0020,N,00106.2392,W,168.41,0.0,151020,,,E*4E
$GPGGA,093949.000,4800.9851,N,00105.8623,W,1,00,,900.8,M,0.0,M,,0000*5D
$GPRMC,093949.000,A,4800.9851,N,00105.8623,W,171.14,0.0,151020,,,E*41
$GPGGA,093959.000,4801.0117,N,00105.4897,W,1,00,,913.6,M,0.0,M,,0000*5E
$GPRMC,093959.000,A,4801.0117,N,00105.4897,W,172.01,0.0,151020,,,E*49
$GPGGA,094009.000,4801.0141,N,00105.1097,W,1,00,,901.6,M,0.0,M,,0000*58
$GPRMC,094009.000,A,4801.0141,N,00105.1097,W,168.95,0.0,151020,,,E*4A
$GPGGA,094019.000,4800.9931,N,00104.7377,W,1,00,,904.4,M,0.0,M,,0000*53
$GPRMC,094019.000,A,4800.9931,N,00104.7377,W,167.69,0.0,151020,,,E*4A
$GPGGA,094041.000,4800.9841,N,00103.9260,W,1,00,,899.1,M,0.0,M,,0000*56
$GPRMC,094041.000,A,4800.9841,N,00103.9260,W,166.97,0.0,151020,,,E*4F
$GPGGA,094100.000,4800.9310,N,00103.2107,W,1,00,,896.4,M,0.0,M,,0000*5E
$GPRMC,094100.000,A,4800.9310,N,00103.2107,W,170.75,0.0,151020,,,E*46
$GPGGA,094120.000,4800.8960,N,00102.4640,W,1,00,,902.1,M,0.0,M,,0000*5A
$GPRMC,094120.000,A,4800.8960,N,00102.4640,W,165.96,0.0,151020,,,E*42
$GPGGA,094139.000,4800.9408,N,00101.7306,W,1,00,,875.5,M,0.0,M,,0000*52
$GPRMC,094139.000,A,4800.9408,N,00101.7306,W,169.56,0.0,151020,,,E*4F
$GPGGA,094149.000,4800.9789,N,00101.3458,W,1,00,,885.6,M,0.0,M,,0000*5B
$GPRMC,094149.000,A,4800.9789,N,00101.3458,W,169.27,0.0,151020,,,E*4C
$GPGGA,094209.000,4801.0434,N,00100.6027,W,1,00,,867.5,M,0.0,M,,0000*56
$GPRMC,094209.000,A,4801.0434,N,00100.6027,W,168.98,0.0,151020,,,E*4B
$GPGGA,094219.000,4801.0836,N,00100.2122,W,1,00,,877.9,M,0.0,M,,0000*54
$GPRMC,094219.000,A,4801.0836,N,00100.2122,W,171.14,0.0,151020,,,E*48
$GPGGA,094230.000,4801.1052,N,00059.8008,W,1,00,,875.1,M,0.0,M,,0000*50
$GPRMC,094230.000,A,4801.1052,N,00059.8008,W,172.69,0.0,151020,,,E*4F
$GPGGA,094250.000,4801.1359,N,00059.0074,W,1,00,,875.7,M,0.0,M,,0000*5B
$GPRMC,094250.000,A,4801.1359,N,00059.0074,W,174.28,0.0,151020,,,E*41
$GPGGA,094309.000,4801.1348,N,00058.2657,W,1,00,,863.0,M,0.0,M,,0000*52
$GPRMC,094309.000,A,4801.1348,N,00058.2657,W,182.23,0.0,151020,,,E*4A
$GPGGA,094319.000,4801.1180,N,00057.8535,W,1,00,,871.9,M,0.0,M,,0000*5D
$GPRMC,094319.000,A,4801.1180,N,00057.8535,W,182.34,0.0,151020,,,E*49
$GPGGA,094330.000,4801.0860,N,00057.4064,W,1,00,,852.8,M,0.0,M,,0000*5D
$GPRMC,094330.000,A,4801.0860,N,00057.4064,W,182.95,0.0,151020,,,E*42
$GPGGA,094349.000,4801.0713,N,00056.6529,W,1,00,,852.1,M,0.0,M,,0000*5E
$GPRMC,094349.000,A,4801.0713,N,00056.6529,W,169.24,0.0,151020,,,E*47
$GPGGA,094359.000,4801.0676,N,00056.2595,W,1,00,,870.0,M,0.0,M,,0000*5F
$GPRMC,094359.000,A,4801.0676,N,00056.2595,W,172.58,0.0,151020,,,E*46
$GPGGA,094410.000,4801.0636,N,00055.8449,W,1,00,,883.1,M,0.0,M,,0000*55
$GPRMC,094410.000,A,4801.0636,N,00055.8449,W,166.79,0.0,151020,,,E*47
$GPGGA,094430.000,4801.0400,N,00055.0868,W,1,00,,881.0,M,0.0,M,,0000*54
$GPRMC,094430.000,A,4801.0400,N,00055.0868,W,172.66,0.0,151020,,,E*4E
$GPGGA,094440.000,4801.0388,N,00054.7160,W,1,00,,887.8,M,0.0,M,,0000*5D
$GPRMC,094440.000,A,4801.0388,N,00054.7160,W,174.06,0.0,151020,,,E*49
$GPGGA,094459.000,4801.0698,N,00053.9631,W,1,00,,891.6,M,0.0,M,,0000*52
$GPRMC,094459.000,A,4801.0698,N,00053.9631,W,170.35,0.0,151020,,,E*4B
$GPGGA,094510.000,4801.0980,N,00053.5479,W,1,00,,862.3,M,0.0,M,,0000*53
$GPRMC,094510.000,A,4801.0980,N,00053.5479,W,178.56,0.0,151020,,,E*4E
$GPGGA,094529.000,4801.0770,N,00052.7818,W,1,00,,842.9,M,0.0,M,,0000*58
$GPRMC,094529.000,A,4801.0770,N,00052.7818,W,180.79,0.0,151020,,,E*47
$GPGGA,094540.000,4801.0396,N,00052.3498,W,1,00,,834.7,M,0.0,M,,0000*54
$GPRMC,094540.000,A,4801.0396,N,00052.3498,W,178.34,0.0,151020,,,E*4A
$GPGGA,094559.000,4800.9851,N,00051.6164,W,1,00,,818.9,M,0.0,M,,0000*54
$GPRMC,094559.000,A,4800.9851,N,00051.6164,W,175.14,0.0,151020,,,E*45
$GPGGA,094619.000,4800.9174,N,00050.8290,W,1,00,,771.9,M,0.0,M,,0000*5A
$GPRMC,094619.000,A,4800.9174,N,00050.8290,W,180.58,0.0,151020,,,E*49
$GPGGA,094639.000,4800.8749,N,00050.0418,W,1,00,,717.6,M,0.0,M,,0000*50
$GPRMC,094639.000,A,4800.8749,N,00050.0418,W,184.72,0.0,151020,,,E*40
$GPGGA,094649.000,4800.8385,N,00049.6326,W,1,00,,657.2,M,0.0,M,,0000*56
$GPRMC,094649.000,A,4800.8385,N,00049.6326,W,179.75,0.0,151020,,,E*42
$GPGGA,094659.000,4800.8272,N,00049.2205,W,1,00,,647.5,M,0.0,M,,0000*5C
$GPRMC,094659.000,A,4800.8272,N,00049.2205,W,187.78,0.0,151020,,,E*42
$GPGGA,094709.000,4800.8133,N,00048.8144,W,1,00,,574.8,M,0.0,M,,0000*5D
$GPRMC,094709.000,A,4800.8133,N,00048.8144,W,184.36,0.0,151020,,,E*44
$GPGGA,094720.000,4800.8227,N,00048.3619,W,1,00,,538.9,M,0.0,M,,0000*5D
$GPRMC,094720.000,A,4800.8227,N,00048.3619,W,189.00,0.0,151020,,,E*45
$GPGGA,094739.000,4800.8295,N,00047.5319,W,1,00,,456.6,M,0.0,M,,0000*56
$GPRMC,094739.000,A,4800.8295,N,00047.5319,W,191.63,0.0,151020,,,E*44
$GPGGA,094750.000,4800.7418,N,00047.1169,W,1,00,,458.4,M,0.0,M,,0000*58
$GPRMC,094750.000,A,4800.7418,N,00047.1169,W,179.96,0.0,151020,,,E*4A
$GPGGA,094809.000,4800.5156,N,00046.4427,W,1,00,,398.2,M,0.0,M,,0000*50
$GPRMC,094809.000,A,4800.5156,N,00046.4427,W,171.43,0.0,151020,,,E*4F
$GPGGA,094820.000,4800.3471,N,00046.0922,W,1,00,,401.5,M,0.0,M,,0000*51
$GPRMC,094820.000,A,4800.3471,N,00046.0922,W,176.69,0.0,151020,,,E*41
$GPGGA,094839.000,4800.0082,N,00045.5681,W,1,00,,412.9,M,0.0,M,,0000*5C
$GPRMC,094839.000,A,4800.0082,N,00045.5681,W,174.53,0.0,151020,,,E*49
$GPGGA,094849.000,4759.8203,N,00045.3061,W,1,00,,419.7,M,0.0,M,,0000*50
$GPRMC,094849.000,A,4759.8203,N,00045.3061,W,173.05,0.0,151020,,,E*44
$GPGGA,094859.000,4759.6412,N,00045.0272,W,1,00,,453.7,M,0.0,M,,0000*54
$GPRMC,094859.000,A,4759.6412,N,00045.0272,W,172.48,0.0,151020,,,E*46
$GPGGA,094910.000,4759.5280,N,00044.6646,W,1,00,,439.3,M,0.0,M,,0000*5A
$GPRMC,094910.000,A,4759.5280,N,00044.6646,W,163.37,0.0,151020,,,E*48
$GPGGA,094930.000,4759.7327,N,00044.0946,W,1,00,,416.3,M,0.0,M,,0000*52
$GPRMC,094930.000,A,4759.7327,N,00044.0946,W,144.29,0.0,151020,,,E*47
$GPGGA,094940.000,4759.8602,N,00043.8501,W,1,00,,403.9,M,0.0,M,,0000*56
$GPRMC,094940.000,A,4759.8602,N,00043.8501,W,141.88,0.0,151020,,,E*43
$GPGGA,094950.000,4800.0030,N,00043.5874,W,1,00,,394.8,M,0.0,M,,0000*51
$GPRMC,094950.000,A,4800.0030,N,00043.5874,W,144.50,0.0,151020,,,E*4C
$GPGGA,095009.000,4800.3077,N,00043.2115,W,1,00,,343.6,M,0.0,M,,0000*58
$GPRMC,095009.000,A,4800.3077,N,00043.2115,W,144.58,0.0,151020,,,E*49
$GPGGA,095019.000,4800.5147,N,00043.1216,W,1,00,,296.6,M,0.0,M,,0000*57
$GPRMC,095019.000,A,4800.5147,N,00043.1216,W,151.13,0.0,151020,,,E*44
$GPGGA,095029.000,4800.7251,N,00043.2631,W,1,00,,264.6,M,0.0,M,,0000*5D
$GPRMC,095029.000,A,4800.7251,N,00043.2631,W,164.23,0.0,151020,,,E*46
$GPGGA,095040.000,4800.9405,N,00043.4982,W,1,00,,234.0,M,0.0,M,,0000*59
$GPRMC,095040.000,A,4800.9405,N,00043.4982,W,146.66,0.0,151020,,,E*40
$GPGGA,095059.000,4801.2553,N,00043.8592,W,1,00,,202.4,M,0.0,M,,0000*59
$GPRMC,095059.000,A,4801.2553,N,00043.8592,W,136.48,0.0,151020,,,E*4A
$GPGGA,095109.000,4801.4133,N,00044.0393,W,1,00,,185.6,M,0.0,M,,0000*5F
$GPRMC,095109.000,A,4801.4133,N,00044.0393,W,134.32,0.0,151020,,,E*4D
$GPGGA,095119.000,4801.5851,N,00044.2235,W,1,00,,157.9,M,0.0,M,,0000*5D
$GPRMC,095119.000,A,4801.5851,N,00044.2235,W,138.92,0.0,151020,,,E*49
$GPGGA,095130.000,4801.7466,N,00044.4204,W,1,00,,147.2,M,0.0,M,,0000*52
$GPRMC,095130.000,A,4801.7466,N,00044.4204,W,120.13,0.0,151020,,,E*4C
$GPGGA,095140.000,4801.8704,N,00044.5630,W,1,00,,136.0,M,0.0,M,,0000*5B
$GPRMC,095140.000,A,4801.8704,N,00044.5630,W,093.92,0.0,151020,,,E*41
$GPGGA,095200.000,4802.1641,N,00044.8954,W,1,00,,188.7,M,0.0,M,,0000*54
$GPRMC,095200.000,A,4802.1641,N,00044.8954,W,138.46,0.0,151020,,,E*45
$GPGGA,095219.000,4802.4673,N,00045.2633,W,1,00,,235.7,M,0.0,M,,0000*58
$GPRMC,095219.000,A,4802.4673,N,00045.2633,W,136.30,0.0,151020,,,E*43
$GPGGA,095229.000,4802.6169,N,00045.4866,W,1,00,,269.4,M,0.0,M,,0000*57
$GPRMC,095229.000,A,4802.6169,N,00045.4866,W,131.11,0.0,151020,,,E*42
$GPGGA,095239.000,4802.7405,N,00045.7145,W,1,00,,302.8,M,0.0,M,,0000*53
$GPRMC,095239.000,A,4802.7405,N,00045.7145,W,137.59,0.0,151020,,,E*4C
$GPGGA,095249.000,4802.7879,N,00046.0364,W,1,00,,339.8,M,0.0,M,,0000*5E
$GPRMC,095249.000,A,4802.7879,N,00046.0364,W,152.50,0.0,151020,,,E*43
$GPGGA,095300.000,4802.7257,N,00046.4184,W,1,00,,390.5,M,0.0,M,,0000*52
$GPRMC,095300.000,A,4802.7257,N,00046.4184,W,179.46,0.0,151020,,,E*4F
$GPGGA,095320.000,4802.3761,N,00047.1074,W,1,00,,416.4,M,0.0,M,,0000*56
$GPRMC,095320.000,A,4802.3761,N,00047.1074,W,198.43,0.0,151020,,,E*49
$GPGGA,095330.000,4802.1371,N,00047.3827,W,1,00,,422.5,M,0.0,M,,0000*5A
$GPRMC,095330.000,A,4802.1371,N,00047.3827,W,207.65,0.0,151020,,,E*42
$GPGGA,095350.000,4801.5647,N,00047.4260,W,1,00,,415.0,M,0.0,M,,0000*54
$GPRMC,095350.000,A,4801.5647,N,00047.4260,W,197.06,0.0,151020,,,E*42
$GPGGA,095400.000,4801.3533,N,00047.1395,W,1,00,,415.2,M,0.0,M,,0000*5C
$GPRMC,095400.000,A,4801.3533,N,00047.1395,W,183.96,0.0,151020,,,E*44
$GPGGA,095410.000,4801.1675,N,00046.8682,W,1,00,,425.3,M,0.0,M,,0000*57
$GPRMC,095410.000,A,4801.1675,N,00046.8682,W,166.46,0.0,151020,,,E*4B
$GPGGA,095429.000,4800.8249,N,00046.4046,W,1,00,,418.4,M,0.0,M,,0000*55
$GPRMC,095429.000,A,4800.8249,N,00046.4046,W,166.75,0.0,151020,,,E*40
$GPGGA,095440.000,4800.6164,N,00046.1528,W,1,00,,412.5,M,0.0,M,,0000*5B
$GPRMC,095440.000,A,4800.6164,N,00046.1528,W,163.48,0.0,151020,,,E*4E
$GPGGA,095459.000,4800.2807,N,00045.6687,W,1,00,,434.8,M,0.0,M,,0000*50
$GPRMC,095459.000,A,4800.2807,N,00045.6687,W,166.79,0.0,151020,,,E*4B
$GPGGA,095509.000,4800.1153,N,00045.4292,W,1,00,,405.6,M,0.0,M,,0000*51
$GPRMC,095509.000,A,4800.1153,N,00045.4292,W,146.70,0.0,151020,,,E*4D
$GPGGA,095520.000,4759.9534,N,00045.1200,W,1,00,,421.7,M,0.0,M,,0000*5D
$GPRMC,095520.000,A,4759.9534,N,00045.1200,W,162.68,0.0,151020,,,E*49
$GPGGA,095540.000,4759.7657,N,00044.4911,W,1,00,,396.7,M,0.0,M,,0000*57
$GPRMC,095540.000,A,4759.7657,N,00044.4911,W,145.84,0.0,151020,,,E*4F
$GPGGA,095550.000,4759.8347,N,00044.1988,W,1,00,,420.3,M,0.0,M,,0000*56
$GPRMC,095550.000,A,4759.8347,N,00044.1988,W,138.31,0.0,151020,,,E*44
$GPGGA,095609.000,4800.0522,N,00043.6905,W,1,00,,400.4,M,0.0,M,,0000*57
$GPRMC,095609.000,A,4800.0522,N,00043.6905,W,150.19,0.0,151020,,,E*44
$GPGGA,095620.000,4800.2175,N,00043.4381,W,1,00,,362.9,M,0.0,M,,0000*52
$GPRMC,095620.000,A,4800.2175,N,00043.4381,W,140.90,0.0,151020,,,E*4F
$GPGGA,095630.000,4800.3735,N,00043.2360,W,1,00,,349.7,M,0.0,M,,0000*5E
$GPRMC,095630.000,A,4800.3735,N,00043.2360,W,134.14,0.0,151020,,,E*4B
$GPGGA,095650.000,4800.7819,N,00043.3164,W,1,00,,292.9,M,0.0,M,,0000*53
$GPRMC,095650.000,A,4800.7819,N,00043.3164,W,155.30,0.0,151020,,,E*4E
$GPGGA,095709.000,4801.1436,N,00043.7266,W,1,00,,237.7,M,0.0,M,,0000*5C
$GPRMC,095709.000,A,4801.1436,N,00043.7266,W,145.51,0.0,151020,,,E*46
$GPGGA,095720.000,4801.3287,N,00043.9344,W,1,00,,210.6,M,0.0,M,,0000*52
$GPRMC,095720.000,A,4801.3287,N,00043.9344,W,139.61,0.0,151020,,,E*44
$GPGGA,095730.000,4801.4936,N,00044.1202,W,1,00,,185.1,M,0.0,M,,0000*51
$GPRMC,095730.000,A,4801.4936,N,00044.1202,W,143.89,0.0,151020,,,E*44
$GPGGA,095749.000,4801.7886,N,00044.4571,W,1,00,,148.1,M,0.0,M,,0000*51
$GPRMC,095749.000,A,4801.7886,N,00044.4571,W,107.32,0.0,151020,,,E*45
$GPGGA,095759.000,4801.8951,N,00044.5866,W,1,00,,157.2,M,0.0,M,,0000*53
$GPRMC,095759.000,A,4801.8951,N,00044.5866,W,087.59,0.0,151020,,,E*4E
$GPGGA,095809.000,4802.0260,N,00044.7408,W,1,00,,146.7,M,0.0,M,,0000*58
$GPRMC,095809.000,A,4802.0260,N,00044.7408,W,125.46,0.0,151020,,,E*47
$GPGGA,095819.000,4802.1935,N,00044.9304,W,1,00,,168.4,M,0.0,M,,0000*59
$GPRMC,095819.000,A,4802.1935,N,00044.9304,W,141.12,0.0,151020,,,E*4A
$GPGGA,095830.000,4802.3683,N,00045.1421,W,1,00,,213.5,M,0.0,M,,0000*55
$GPRMC,095830.000,A,4802.3683,N,00045.1421,W,133.81,0.0,151020,,,E*47
$GPGGA,095850.000,4802.6724,N,00045.6183,W,1,00,,262.7,M,0.0,M,,0000*54
$GPRMC,095850.000,A,4802.6724,N,00045.6183,W,156.60,0.0,151020,,,E*4E
$GPGGA,095910.000,4802.7713,N,00046.3442,W,1,00,,334.6,M,0.0,M,,0000*59
$GPRMC,095910.000,A,4802.7713,N,00046.3442,W,184.57,0.0,151020,,,E*4B
$GPGGA,095929.000,4802.6942,N,00047.1156,W,1,00,,389.6,M,0.0,M,,0000*5D
$GPRMC,095929.000,A,4802.6942,N,00047.1156,W,182.88,0.0,151020,,,E*4D
$GPGGA,095939.000,4802.6749,N,00047.5090,W,1,00,,436.1,M,0.0,M,,0000*52
$GPRMC,095939.000,A,4802.6749,N,00047.5090,W,176.04,0.0,151020,,,E*49
$GPGGA,095949.000,4802.6550,N,00047.9119,W,1,00,,481.7,M,0.0,M,,0000*59
$GPRMC,095949.000,A,4802.6550,N,00047.9119,W,183.42,0.0,151020,,,E*40
$GPGGA,095959.000,4802.6374,N,00048.3279,W,1,00,,495.4,M,0.0,M,,0000*5E
$GPRMC,095959.000,A,4802.6374,N,00048.3279,W,188.03,0.0,151020,,,E*4F
$GPGGA,100009.000,4802.6196,N,00048.7436,W,1,00,,530.9,M,0.0,M,,0000*5B
$GPRMC,100009.000,A,4802.6196,N,00048.7436,W,182.70,0.0,151020,,,E*47
$GPGGA,100019.000,4802.6082,N,00049.1501,W,1,00,,559.5,M,0.0,M,,0000*5F
$GPRMC,100019.000,A,4802.6082,N,00049.1501,W,188.46,0.0,151020,,,E*4F
$GPGGA,100029.000,4802.5914,N,00049.5681,W,1,00,,569.0,M,0.0,M,,0000*50
$GPRMC,100029.000,A,4802.5914,N,00049.5681,W,183.74,0.0,151020,,,E*4C
$GPGGA,100039.000,4802.5702,N,00049.9902,W,1,00,,600.8,M,0.0,M,,0000*54
$GPRMC,100039.000,A,4802.5702,N,00049.9902,W,187.13,0.0,151020,,,E*49
$GPGGA,100049.000,4802.5389,N,00050.4116,W,1,00,,611.7,M,0.0,M,,0000*53
$GPRMC,100049.000,A,4802.5389,N,00050.4116,W,192.71,0.0,151020,,,E*41
$GPGGA,100059.000,4802.5273,N,00050.8600,W,1,00,,642.0,M,0.0,M,,0000*5B
$GPRMC,100059.000,A,4802.5273,N,00050.8600,W,200.16,0.0,151020,,,E*41
$GPGGA,100110.000,4802.5063,N,00051.3372,W,1,00,,664.4,M,0.0,M,,0000*5E
$GPRMC,100110.000,A,4802.5063,N,00051.3372,W,195.70,0.0,151020,,,E*4B
$GPGGA,100129.000,4802.4920,N,00052.1617,W,1,00,,708.1,M,0.0,M,,0000*52
$GPRMC,100129.000,A,4802.4920,N,00052.1617,W,198.11,0.0,151020,,,E*43
$GPGGA,100139.000,4802.4761,N,00052.6057,W,1,00,,747.2,M,0.0,M,,0000*55
$GPRMC,100139.000,A,4802.4761,N,00052.6057,W,192.49,0.0,151020,,,E*4B
$GPGGA,100149.000,4802.4492,N,00053.0421,W,1,00,,759.7,M,0.0,M,,0000*55
$GPRMC,100149.000,A,4802.4492,N,00053.0421,W,198.72,0.0,151020,,,E*43
$GPGGA,100159.000,4802.4238,N,00053.5003,W,1,00,,766.8,M,0.0,M,,0000*50
$GPRMC,100159.000,A,4802.4238,N,00053.5003,W,203.94,0.0,151020,,,E*4C
$GPGGA,100210.000,4802.3754,N,00053.9928,W,1,00,,812.2,M,0.0,M,,0000*5C
$GPRMC,100210.000,A,4802.3754,N,00053.9928,W,203.58,0.0,151020,,,E*46
$GPGGA,100229.000,4802.2472,N,00054.8474,W,1,00,,831.0,M,0.0,M,,0000*51
$GPRMC,100229.000,A,4802.2472,N,00054.8474,W,208.80,0.0,151020,,,E*46
$GPGGA,100240.000,4802.1615,N,00055.3321,W,1,00,,874.9,M,0.0,M,,0000*5B
$GPRMC,100240.000,A,4802.1615,N,00055.3321,W,203.54,0.0,151020,,,E*46
$GPGGA,100250.000,4802.0400,N,00055.7594,W,1,00,,888.5,M,0.0,M,,0000*5E
$GPRMC,100250.000,A,4802.0400,N,00055.7594,W,213.91,0.0,151020,,,E*44
$GPGGA,100309.000,4801.7857,N,00056.6058,W,1,00,,939.4,M,0.0,M,,0000*54
$GPRMC,100309.000,A,4801.7857,N,00056.6058,W,212.22,0.0,151020,,,E*4D
$GPGGA,100319.000,4801.6663,N,00057.0477,W,1,00,,950.7,M,0.0,M,,0000*5F
$GPRMC,100319.000,A,4801.6663,N,00057.0477,W,221.80,0.0,151020,,,E*42
$GPGGA,100329.000,4801.5552,N,00057.5257,W,1,00,,963.6,M,0.0,M,,0000*5E
$GPRMC,100329.000,A,4801.5552,N,00057.5257,W,221.76,0.0,151020,,,E*4B
$GPGGA,100339.000,4801.4644,N,00057.9893,W,1,00,,981.2,M,0.0,M,,0000*5C
$GPRMC,100339.000,A,4801.4644,N,00057.9893,W,223.85,0.0,151020,,,E*4F
$GPGGA,100350.000,4801.3696,N,00058.5310,W,1,00,,1009.7,M,0.0,M,,0000*65
$GPRMC,100350.000,A,4801.3696,N,00058.5310,W,228.78,0.0,151020,,,E*42
$GPGGA,100409.000,4801.3327,N,00059.4765,W,1,00,,982.9,M,0.0,M,,0000*52
$GPRMC,100409.000,A,4801.3327,N,00059.4765,W,225.25,0.0,151020,,,E*45
$GPGGA,100420.000,4801.3728,N,00100.0229,W,1,00,,992.4,M,0.0,M,,0000*5A
$GPRMC,100420.000,A,4801.3728,N,00100.0229,W,229.14,0.0,151020,,,E*4F
$GPGGA,100439.000,4801.4473,N,00100.9912,W,1,00,,978.9,M,0.0,M,,0000*5B
$GPRMC,100439.000,A,4801.4473,N,00100.9912,W,230.87,0.0,151020,,,E*45
$GPGGA,100450.000,4801.3825,N,00101.5407,W,1,00,,994.5,M,0.0,M,,0000*56
$GPRMC,100450.000,A,4801.3825,N,00101.5407,W,234.07,0.0,151020,,,E*4A
$GPGGA,100509.000,4801.3791,N,00102.5090,W,1,00,,976.8,M,0.0,M,,0000*53
$GPRMC,100509.000,A,4801.3791,N,00102.5090,W,227.66,0.0,151020,,,E*4B
$GPGGA,100519.000,4801.4533,N,00102.9944,W,1,00,,959.2,M,0.0,M,,0000*54
$GPRMC,100519.000,A,4801.4533,N,00102.9944,W,222.08,0.0,151020,,,E*46
$GPGGA,100529.000,4801.5409,N,00103.4747,W,1,00,,931.1,M,0.0,M,,0000*52
$GPRMC,100529.000,A,4801.5409,N,00103.4747,W,227.23,0.0,151020,,,E*41
$GPGGA,100539.000,4801.6458,N,00103.9575,W,1,00,,931.7,M,0.0,M,,0000*5C
$GPRMC,100539.000,A,4801.6458,N,00103.9575,W,220.21,0.0,151020,,,E*4C
$GPGGA,100550.000,4801.7616,N,00104.4668,W,1,00,,924.5,M,0.0,M,,0000*59
$GPRMC,100550.000,A,4801.7616,N,00104.4668,W,217.30,0.0,151020,,,E*4B
$GPGGA,100600.000,4801.8854,N,00104.9157,W,1,00,,921.0,M,0.0,M,,0000*5E
$GPRMC,100600.000,A,4801.8854,N,00104.9157,W,214.67,0.0,151020,,,E*4D
$GPGGA,100619.000,4802.0929,N,00105.7995,W,1,00,,893.2,M,0.0,M,,0000*55
$GPRMC,100619.000,A,4802.0929,N,00105.7995,W,224.57,0.0,151020,,,E*4C
$GPGGA,100629.000,4802.1719,N,00106.3013,W,1,00,,867.1,M,0.0,M,,0000*52
$GPRMC,100629.000,A,4802.1719,N,00106.3013,W,227.56,0.0,151020,,,E*41
$GPGGA,100640.000,4802.2511,N,00106.8201,W,1,00,,883.5,M,0.0,M,,0000*50
$GPRMC,100640.000,A,4802.2511,N,00106.8201,W,217.51,0.0,151020,,,E*49
$GPGGA,100650.000,4802.3342,N,00107.3401,W,1,00,,878.2,M,0.0,M,,0000*5F
$GPRMC,100650.000,A,4802.3342,N,00107.3401,W,222.95,0.0,151020,,,E*4B
$GPGGA,100709.000,4802.4402,N,00108.2475,W,1,00,,864.7,M,0.0,M,,0000*53
$GPRMC,100709.000,A,4802.4402,N,00108.2475,W,223.31,0.0,151020,,,E*40
$GPGGA,100719.000,4802.4639,N,00108.7563,W,1,00,,852.6,M,0.0,M,,0000*5F
$GPRMC,100719.000,A,4802.4639,N,00108.7563,W,225.11,0.0,151020,,,E*4C
$GPGGA,100729.000,4802.4927,N,00109.2663,W,1,00,,844.5,M,0.0,M,,0000*5F
$GPRMC,100729.000,A,4802.4927,N,00109.2663,W,221.44,0.0,151020,,,E*4C
$GPGGA,100739.000,4802.5260,N,00109.7472,W,1,00,,861.5,M,0.0,M,,0000*57
$GPRMC,100739.000,A,4802.5260,N,00109.7472,W,222.55,0.0,151020,,,E*40
$GPGGA,100750.000,4802.5644,N,00110.2778,W,1,00,,827.6,M,0.0,M,,0000*5F
$GPRMC,100750.000,A,4802.5644,N,00110.2778,W,216.11,0.0,151020,,,E*4E
$GPGGA,100811.000,4802.6164,N,00111.2693,W,1,00,,823.3,M,0.0,M,,0000*57
$GPRMC,100811.000,A,4802.6164,N,00111.2693,W,211.54,0.0,151020,,,E*41
$GPGGA,100830.000,4802.6857,N,00112.1959,W,1,00,,799.4,M,0.0,M,,0000*5D
$GPRMC,100830.000,A,4802.6857,N,00112.1959,W,216.47,0.0,151020,,,E*47
$GPGGA,100840.000,4802.7420,N,00112.7079,W,1,00,,755.3,M,0.0,M,,0000*5D
$GPRMC,100840.000,A,4802.7420,N,00112.7079,W,231.55,0.0,151020,,,E*46
$GPGGA,100850.000,4802.8111,N,00113.2029,W,1,00,,757.5,M,0.0,M,,0000*51
$GPRMC,100850.000,A,4802.8111,N,00113.2029,W,225.94,0.0,151020,,,E*46
$GPGGA,100900.000,4802.8558,N,00113.7149,W,1,00,,720.2,M,0.0,M,,0000*59
$GPRMC,100900.000,A,4802.8558,N,00113.7149,W,231.88,0.0,151020,,,E*41
$GPGGA,100910.000,4802.9393,N,00114.2028,W,1,00,,661.0,M,0.0,M,,0000*5A
$GPRMC,100910.000,A,4802.9393,N,00114.2028,W,213.01,0.0,151020,,,E*45
$GPGGA,100930.000,4803.0882,N,00115.0933,W,1,00,,658.1,M,0.0,M,,0000*50
$GPRMC,100930.000,A,4803.0882,N,00115.0933,W,214.96,0.0,151020,,,E*4D
$GPGGA,100949.000,4803.1140,N,00115.9875,W,1,00,,658.1,M,0.0,M,,0000*52
$GPRMC,100949.000,A,4803.1140,N,00115.9875,W,208.37,0.0,151020,,,E*49
$GPGGA,101000.000,4803.1157,N,00116.5026,W,1,00,,663.3,M,0.0,M,,0000*5A
$GPRMC,101000.000,A,4803.1157,N,00116.5026,W,202.43,0.0,151020,,,E*42
$GPGGA,101019.000,4803.1028,N,00117.3749,W,1,00,,643.1,M,0.0,M,,0000*52
$GPRMC,101019.000,A,4803.1028,N,00117.3749,W,204.48,0.0,151020,,,E*47
$GPGGA,101029.000,4803.1190,N,00117.8329,W,1,00,,649.1,M,0.0,M,,0000*50
$GPRMC,101029.000,A,4803.1190,N,00117.8329,W,207.32,0.0,151020,,,E*41
$GPGGA,101040.000,4803.1296,N,00118.3318,W,1,00,,661.2,M,0.0,M,,0000*55
$GPRMC,101040.000,A,4803.1296,N,00118.3318,W,195.05,0.0,151020,,,E*41
$GPGGA,101050.000,4803.1407,N,00118.7665,W,1,00,,625.6,M,0.0,M,,0000*55
$GPRMC,101050.000,A,4803.1407,N,00118.7665,W,188.89,0.0,151020,,,E*4D
$GPGGA,101100.000,4803.1436,N,00119.1876,W,1,00,,572.4,M,0.0,M,,0000*5B
$GPRMC,101100.000,A,4803.1436,N,00119.1876,W,188.24,0.0,151020,,,E*47
$GPGGA,101120.000,4803.2562,N,00119.9469,W,1,00,,460.7,M,0.0,M,,0000*51
$GPRMC,101120.000,A,4803.2562,N,00119.9469,W,151.45,0.0,151020,,,E*4F
$GPGGA,101130.000,4803.3996,N,00120.2023,W,1,00,,418.7,M,0.0,M,,0000*52
$GPRMC,101130.000,A,4803.3996,N,00120.2023,W,150.88,0.0,151020,,,E*43
$GPGGA,101140.000,4803.6212,N,00120.3004,W,1,00,,392.6,M,0.0,M,,0000*57
$GPRMC,101140.000,A,4803.6212,N,00120.3004,W,144.54,0.0,151020,,,E*46
$GPGGA,101150.000,4803.8362,N,00120.3007,W,1,00,,315.7,M,0.0,M,,0000*53
$GPRMC,101150.000,A,4803.8362,N,00120.3007,W,144.68,0.0,151020,,,E*43
$GPGGA,101209.000,4804.2273,N,00120.3261,W,1,00,,230.6,M,0.0,M,,0000*55
$GPRMC,101209.000,A,4804.2273,N,00120.3261,W,131.69,0.0,151020,,,E*41
$GPGGA,101219.000,4804.4287,N,00120.3691,W,1,00,,245.9,M,0.0,M,,0000*5F
$GPRMC,101219.000,A,4804.4287,N,00120.3691,W,128.09,0.0,151020,,,E*48
$GPGGA,101229.000,4804.6214,N,00120.4503,W,1,00,,266.5,M,0.0,M,,0000*56
$GPRMC,101229.000,A,4804.6214,N,00120.4503,W,126.00,0.0,151020,,,E*4B
$GPGGA,101249.000,4804.7741,N,00121.0016,W,1,00,,312.1,M,0.0,M,,0000*56
$GPRMC,101249.000,A,4804.7741,N,00121.0016,W,158.36,0.0,151020,,,E*41
$GPGGA,101259.000,4804.7143,N,00121.3642,W,1,00,,333.3,M,0.0,M,,0000*56
$GPRMC,101259.000,A,4804.7143,N,00121.3642,W,171.43,0.0,151020,,,E*49
$GPGGA,101310.000,4804.5556,N,00121.7203,W,1,00,,373.1,M,0.0,M,,0000*5B
$GPRMC,101310.000,A,4804.5556,N,00121.7203,W,181.04,0.0,151020,,,E*4E
$GPGGA,101320.000,4804.3105,N,00121.8699,W,1,00,,393.7,M,0.0,M,,0000*5C
$GPRMC,101320.000,A,4804.3105,N,00121.8699,W,171.00,0.0,151020,,,E*4A
$GPGGA,101330.000,4804.0546,N,00121.8863,W,1,00,,416.8,M,0.0,M,,0000*53
$GPRMC,101330.000,A,4804.0546,N,00121.8863,W,181.69,0.0,151020,,,E*40
$GPGGA,101350.000,4803.5259,N,00121.8399,W,1,00,,487.4,M,0.0,M,,0000*54
$GPRMC,101350.000,A,4803.5259,N,00121.8399,W,176.87,0.0,151020,,,E*4B
$GPGGA,101410.000,4802.9309,N,00121.7610,W,1,00,,501.5,M,0.0,M,,0000*5B
$GPRMC,101410.000,A,4802.9309,N,00121.7610,W,204.26,0.0,151020,,,E*47
$GPGGA,101430.000,4802.7294,N,00122.4750,W,1,00,,492.9,M,0.0,M,,0000*50
$GPRMC,101430.000,A,4802.7294,N,00122.4750,W,189.79,0.0,151020,,,E*47
$GPGGA,101449.000,4802.7447,N,00123.3370,W,1,00,,484.2,M,0.0,M,,0000*5A
$GPRMC,101449.000,A,4802.7447,N,00123.3370,W,208.48,0.0,151020,,,E*49
$GPGGA,101500.000,4802.7324,N,00123.7954,W,1,00,,519.2,M,0.0,M,,0000*59
$GPRMC,101500.000,A,4802.7324,N,00123.7954,W,167.90,0.0,151020,,,E*40
$GPGGA,101510.000,4802.7227,N,00124.1467,W,1,00,,482.9,M,0.0,M,,0000*5E
$GPRMC,101510.000,A,4802.7227,N,00124.1467,W,149.65,0.0,151020,,,E*49
$GPGGA,101530.000,4802.9091,N,00124.7639,W,1,00,,362.5,M,0.0,M,,0000*57
$GPRMC,101530.000,A,4802.9091,N,00124.7639,W,145.19,0.0,151020,,,E*42
$GPGGA,101549.000,4803.2581,N,00124.5774,W,1,00,,291.6,M,0.0,M,,0000*53
$GPRMC,101549.000,A,4803.2581,N,00124.5774,W,134.39,0.0,151020,,,E*4C
$GPGGA,101609.000,4803.6382,N,00124.5437,W,1,00,,246.0,M,0.0,M,,0000*5D
$GPRMC,101609.000,A,4803.6382,N,00124.5437,W,134.89,0.0,151020,,,E*45
$GPGGA,101620.000,4803.7761,N,00124.7946,W,1,00,,260.6,M,0.0,M,,0000*55
$GPRMC,101620.000,A,4803.7761,N,00124.7946,W,133.99,0.0,151020,,,E*49
$GPGGA,101640.000,4803.6943,N,00125.4811,W,1,00,,353.9,M,0.0,M,,0000*53
$GPRMC,101640.000,A,4803.6943,N,00125.4811,W,167.18,0.0,151020,,,E*49
$GPGGA,101650.000,4803.5317,N,00125.8012,W,1,00,,375.8,M,0.0,M,,0000*58
$GPRMC,101650.000,A,4803.5317,N,00125.8012,W,185.40,0.0,151020,,,E*46
$GPGGA,101709.000,4803.0355,N,00125.9902,W,1,00,,403.4,M,0.0,M,,0000*55
$GPRMC,101709.000,A,4803.0355,N,00125.9902,W,183.28,0.0,151020,,,E*49
$GPGGA,101720.000,4802.7969,N,00125.7708,W,1,00,,495.9,M,0.0,M,,0000*55
$GPRMC,101720.000,A,4802.7969,N,00125.7708,W,164.59,0.0,151020,,,E*44
$GPGGA,101739.000,4802.6368,N,00125.1885,W,1,00,,558.3,M,0.0,M,,0000*51
$GPRMC,101739.000,A,4802.6368,N,00125.1885,W,145.87,0.0,151020,,,E*4A
$GPGGA,101759.000,4802.9423,N,00124.8637,W,1,00,,611.4,M,0.0,M,,0000*56
$GPRMC,101759.000,A,4802.9423,N,00124.8637,W,138.06,0.0,151020,,,E*47
$GPGGA,101810.000,4803.1460,N,00125.0190,W,1,00,,593.3,M,0.0,M,,0000*57
$GPRMC,101810.000,A,4803.1460,N,00125.0190,W,141.77,0.0,151020,,,E*40
$GPGGA,101821.000,4803.0615,N,00125.5662,W,1,00,,678.1,M,0.0,M,,0000*5F
$GPRMC,101821.000,A,4803.0615,N,00125.5662,W,205.38,0.0,151020,,,E*44
$GPGGA,101839.000,4802.9670,N,00126.4165,W,1,00,,663.1,M,0.0,M,,0000*55
$GPRMC,101839.000,A,4802.9670,N,00126.4165,W,213.95,0.0,151020,,,E*44
$GPGGA,101850.000,4802.9537,N,00126.9184,W,1,00,,669.5,M,0.0,M,,0000*56
$GPRMC,101850.000,A,4802.9537,N,00126.9184,W,214.06,0.0,151020,,,E*44
$GPGGA,101910.000,4802.9559,N,00127.9205,W,1,00,,646.1,M,0.0,M,,0000*59
$GPRMC,101910.000,A,4802.9559,N,00127.9205,W,222.73,0.0,151020,,,E*45
$GPGGA,101920.000,4802.9577,N,00128.4219,W,1,00,,632.4,M,0.0,M,,0000*5F
$GPRMC,101920.000,A,4802.9577,N,00128.4219,W,222.80,0.0,151020,,,E*49
$GPGGA,101930.000,4802.9655,N,00128.9076,W,1,00,,649.4,M,0.0,M,,0000*57
$GPRMC,101930.000,A,4802.9655,N,00128.9076,W,212.87,0.0,151020,,,E*49
$GPGGA,101950.000,4802.9828,N,00129.8802,W,1,00,,642.5,M,0.0,M,,0000*54
$GPRMC,101950.000,A,4802.9828,N,00129.8802,W,225.86,0.0,151020,,,E*45
$GPGGA,102009.000,4803.0190,N,00130.8107,W,1,00,,626.5,M,0.0,M,,0000*56
$GPRMC,102009.000,A,4803.0190,N,00130.8107,W,215.32,0.0,151020,,,E*49
$GPGGA,102019.000,4803.0245,N,00131.2865,W,1,00,,618.7,M,0.0,M,,0000*55
$GPRMC,102019.000,A,4803.0245,N,00131.2865,W,218.05,0.0,151020,,,E*4C
$GPGGA,102029.000,4803.0323,N,00131.7690,W,1,00,,625.4,M,0.0,M,,0000*5B
$GPRMC,102029.000,A,4803.0323,N,00131.7690,W,217.37,0.0,151020,,,E*41
$GPGGA,102039.000,4803.0268,N,00132.2753,W,1,00,,601.8,M,0.0,M,,0000*56
$GPRMC,102039.000,A,4803.0268,N,00132.2753,W,218.45,0.0,151020,,,E*4C
$GPGGA,102049.000,4803.0255,N,00132.7524,W,1,00,,596.1,M,0.0,M,,0000*5C
$GPRMC,102049.000,A,4803.0255,N,00132.7524,W,212.76,0.0,151020,,,E*48
$GPGGA,102059.000,4803.0382,N,00133.2261,W,1,00,,557.4,M,0.0,M,,0000*5C
$GPRMC,102059.000,A,4803.0382,N,00133.2261,W,216.83,0.0,151020,,,E*4E
$GPGGA,102109.000,4803.0472,N,00133.7236,W,1,00,,532.4,M,0.0,M,,0000*54
$GPRMC,102109.000,A,4803.0472,N,00133.7236,W,221.18,0.0,151020,,,E*43
$GPGGA,102120.000,4803.0828,N,00134.2468,W,1,00,,517.9,M,0.0,M,,0000*59
$GPRMC,102120.000,A,4803.0828,N,00134.2468,W,218.45,0.0,151020,,,E*46
$GPGGA,102140.000,4803.1756,N,00135.2103,W,1,00,,482.9,M,0.0,M,,0000*5C
$GPRMC,102140.000,A,4803.1756,N,00135.2103,W,206.21,0.0,151020,,,E*43
$GPGGA,102159.000,4803.2884,N,00136.0326,W,1,00,,467.1,M,0.0,M,,0000*50
$GPRMC,102159.000,A,4803.2884,N,00136.0326,W,193.93,0.0,151020,,,E*4A
$GPGGA,102210.000,4803.3477,N,00136.4948,W,1,00,,438.2,M,0.0,M,,0000*50
$GPRMC,102210.000,A,4803.3477,N,00136.4948,W,191.88,0.0,151020,,,E*4B
$GPGGA,102230.000,4803.4432,N,00137.2948,W,1,00,,431.4,M,0.0,M,,0000*5C
$GPRMC,102230.000,A,4803.4432,N,00137.2948,W,173.41,0.0,151020,,,E*41
$GPGGA,102240.000,4803.4968,N,00137.6727,W,1,00,,425.7,M,0.0,M,,0000*5C
$GPRMC,102240.000,A,4803.4968,N,00137.6727,W,168.80,0.0,151020,,,E*40
$GPGGA,102300.000,4803.6065,N,00138.4391,W,1,00,,425.3,M,0.0,M,,0000*5F
$GPRMC,102300.000,A,4803.6065,N,00138.4391,W,177.62,0.0,151020,,,E*45
$GPGGA,102310.000,4803.6552,N,00138.8252,W,1,00,,409.5,M,0.0,M,,0000*55
$GPRMC,102310.000,A,4803.6552,N,00138.8252,W,171.07,0.0,151020,,,E*42
$GPGGA,102329.000,4803.7441,N,00139.5360,W,1,00,,373.0,M,0.0,M,,0000*5E
$GPRMC,102329.000,A,4803.7441,N,00139.5360,W,169.67,0.0,151020,,,E*49
$GPGGA,102340.000,4803.8041,N,00139.9470,W,1,00,,349.5,M,0.0,M,,0000*5C
$GPRMC,102340.000,A,4803.8041,N,00139.9470,W,168.62,0.0,151020,,,E*43
$GPGGA,102350.000,4803.8483,N,00140.3241,W,1,00,,330.3,M,0.0,M,,0000*5F
$GPRMC,102350.000,A,4803.8483,N,00140.3241,W,172.69,0.0,151020,,,E*48
$GPGGA,102400.000,4803.8990,N,00140.6975,W,1,00,,296.9,M,0.0,M,,0000*5C
$GPRMC,102400.000,A,4803.8990,N,00140.6975,W,172.37,0.0,151020,,,E*47
$GPGGA,102419.000,4803.9839,N,00141.3995,W,1,00,,267.7,M,0.0,M,,0000*5D
$GPRMC,102419.000,A,4803.9839,N,00141.3995,W,164.66,0.0,151020,,,E*45
$GPGGA,102429.000,4804.0358,N,00141.7614,W,1,00,,209.4,M,0.0,M,,0000*55
$GPRMC,102429.000,A,4804.0358,N,00141.7614,W,162.50,0.0,151020,,,E*45
$GPGGA,102440.000,4804.0879,N,00142.1339,W,1,00,,186.0,M,0.0,M,,0000*5D
$GPRMC,102440.000,A,4804.0879,N,00142.1339,W,152.03,0.0,151020,,,E*48
$GPGGA,102500.000,4804.1742,N,00142.8039,W,1,00,,141.7,M,0.0,M,,0000*58
$GPRMC,102500.000,A,4804.1742,N,00142.8039,W,144.65,0.0,151020,,,E*46
$GPGGA,102510.000,4804.2113,N,00143.1176,W,1,00,,125.3,M,0.0,M,,0000*5C
$GPRMC,102510.000,A,4804.2113,N,00143.1176,W,141.59,0.0,151020,,,E*4E
$GPGGA,102529.000,4804.2777,N,00143.5960,W,1,00,,55.4,M,0.0,M,,0000*68
$GPRMC,102529.000,A,4804.2777,N,00143.5960,W,093.42,0.0,151020,,,E*4F
$GPGGA,102540.000,4804.3083,N,00143.8476,W,1,00,,79.9,M,0.0,M,,0000*6E
$GPRMC,102540.000,A,4804.3083,N,00143.8476,W,126.40,0.0,151020,,,E*47
$GPGGA,102550.000,4804.3472,N,00144.1635,W,1,00,,89.4,M,0.0,M,,0000*6C
$GPRMC,102550.000,A,4804.3472,N,00144.1635,W,148.14,0.0,151020,,,E*4E
$GPGGA,102600.000,4804.3861,N,00144.4997,W,1,00,,116.5,M,0.0,M,,0000*50
$GPRMC,102600.000,A,4804.3861,N,00144.4997,W,154.94,0.0,151020,,,E*41
$GPGGA,102620.000,4804.4846,N,00145.1887,W,1,00,,168.2,M,0.0,M,,0000*5A
$GPRMC,102620.000,A,4804.4846,N,00145.1887,W,166.72,0.0,151020,,,E*4C
$GPGGA,102630.000,4804.5266,N,00145.5688,W,1,00,,204.9,M,0.0,M,,0000*55
$GPRMC,102630.000,A,4804.5266,N,00145.5688,W,170.10,0.0,151020,,,E*42
$GPGGA,102650.000,4804.5979,N,00146.3122,W,1,00,,298.0,M,0.0,M,,0000*58
$GPRMC,102650.000,A,4804.5979,N,00146.3122,W,164.95,0.0,151020,,,E*4B
$GPGGA,102700.000,4804.6216,N,00146.6783,W,1,00,,328.9,M,0.0,M,,0000*56
$GPRMC,102700.000,A,4804.6216,N,00146.6783,W,165.89,0.0,151020,,,E*4A
$GPGGA,102719.000,4804.6208,N,00147.3574,W,1,00,,386.1,M,0.0,M,,0000*53
$GPRMC,102719.000,A,4804.6208,N,00147.3574,W,172.04,0.0,151020,,,E*40
$GPGGA,102730.000,4804.4004,N,00147.6099,W,1,00,,440.4,M,0.0,M,,0000*5F
$GPRMC,102730.000,A,4804.4004,N,00147.6099,W,183.78,0.0,151020,,,E*41
$GPGGA,102740.000,4804.1600,N,00147.4454,W,1,00,,460.7,M,0.0,M,,0000*59
$GPRMC,102740.000,A,4804.1600,N,00147.4454,W,187.96,0.0,151020,,,E*42
$GPGGA,102750.000,4803.9668,N,00147.1575,W,1,00,,493.9,M,0.0,M,,0000*5C
$GPRMC,102750.000,A,4803.9668,N,00147.1575,W,174.67,0.0,151020,,,E*47
$GPGGA,102810.000,4803.5908,N,00146.6232,W,1,00,,477.9,M,0.0,M,,0000*5A
$GPRMC,102810.000,A,4803.5908,N,00146.6232,W,176.62,0.0,151020,,,E*4C
$GPGGA,102820.000,4803.4020,N,00146.3347,W,1,00,,469.0,M,0.0,M,,0000*5B
$GPRMC,102820.000,A,4803.4020,N,00146.3347,W,181.04,0.0,151020,,,E*43
$GPGGA,102830.000,4803.2279,N,00146.0469,W,1,00,,484.8,M,0.0,M,,0000*51
$GPRMC,102830.000,A,4803.2279,N,00146.0469,W,173.59,0.0,151020,,,E*47
$GPGGA,102850.000,4802.9636,N,00145.4311,W,1,00,,483.9,M,0.0,M,,0000*5B
$GPRMC,102850.000,A,4802.9636,N,00145.4311,W,152.17,0.0,151020,,,E*42
$GPGGA,102900.000,4802.8954,N,00145.1110,W,1,00,,461.1,M,0.0,M,,0000*57
$GPRMC,102900.000,A,4802.8954,N,00145.1110,W,135.61,0.0,151020,,,E*4A
$GPGGA,102909.000,4802.8960,N,00144.8463,W,1,00,,403.2,M,0.0,M,,0000*57
$GPRMC,102909.000,A,4802.8960,N,00144.8463,W,147.13,0.0,151020,,,E*4D
$GPGGA,102930.000,4802.9730,N,00144.1959,W,1,00,,312.3,M,0.0,M,,0000*5C
$GPRMC,102930.000,A,4802.9730,N,00144.1959,W,137.41,0.0,151020,,,E*40
$GPGGA,102940.000,4803.0567,N,00143.9339,W,1,00,,275.4,M,0.0,M,,0000*57
$GPRMC,102940.000,A,4803.0567,N,00143.9339,W,124.45,0.0,151020,,,E*4A
$GPGGA,102950.000,4803.2290,N,00143.8100,W,1,00,,227.5,M,0.0,M,,0000*54
$GPRMC,102950.000,A,4803.2290,N,00143.8100,W,135.14,0.0,151020,,,E*4B
$GPGGA,103000.000,4803.4437,N,00143.7975,W,1,00,,200.7,M,0.0,M,,0000*56
$GPRMC,103000.000,A,4803.4437,N,00143.7975,W,139.82,0.0,151020,,,E*4D
$GPGGA,103019.000,4803.7832,N,00143.9440,W,1,00,,110.7,M,0.0,M,,0000*53
$GPRMC,103019.000,A,4803.7832,N,00143.9440,W,124.06,0.0,151020,,,E*4A
$GPGGA,103029.000,4803.9148,N,00144.1009,W,1,00,,90.9,M,0.0,M,,0000*6B
$GPRMC,103029.000,A,4803.9148,N,00144.1009,W,096.52,0.0,151020,,,E*4C
$GPGGA,103039.000,4804.0104,N,00144.2035,W,1,00,,86.9,M,0.0,M,,0000*67
$GPRMC,103039.000,A,4804.0104,N,00144.2035,W,070.43,0.0,151020,,,E*4F
$GPGGA,103049.000,4804.0816,N,00144.2884,W,1,00,,78.8,M,0.0,M,,0000*68
$GPRMC,103049.000,A,4804.0816,N,00144.2884,W,044.13,0.0,151020,,,E*42
$GPGGA,103059.000,4804.1117,N,00144.3237,W,1,00,,89.7,M,0.0,M,,0000*62
$GPRMC,103059.000,A,4804.1117,N,00144.3237,W,015.54,0.0,151020,,,E*4E
$GPGGA,103110.000,4804.1160,N,00144.3305,W,1,00,,87.1,M,0.0,M,,0000*66
$GPRMC,103110.000,A,4804.1160,N,00144.3305,W,003.70,0.0,151020,,,E*43
$GPGGA,103120.000,4804.1088,N,00144.3303,W,1,00,,91.6,M,0.0,M,,0000*64
$GPRMC,103120.000,A,4804.1088,N,00144.3303,W,010.12,0.0,151020,,,E*47
$GPGGA,103140.000,4804.0352,N,00144.2421,W,1,00,,83.1,M,0.0,M,,0000*65
$GPRMC,103140.000,A,4804.0352,N,00144.2421,W,041.67,0.0,151020,,,E*44
$GPGGA,103159.000,4803.9351,N,00144.1250,W,1,00,,80.6,M,0.0,M,,0000*67
$GPRMC,103159.000,A,4803.9351,N,00144.1250,W,041.77,0.0,151020,,,E*43
$GPGGA,103209.000,4803.8933,N,00144.0816,W,1,00,,84.6,M,0.0,M,,0000*63
$GPRMC,103209.000,A,4803.8933,N,00144.0816,W,029.33,0.0,151020,,,E*4D
$GPGGA,103219.000,4803.8683,N,00144.0486,W,1,00,,79.0,M,0.0,M,,0000*67
$GPRMC,103219.000,A,4803.8683,N,00144.0486,W,021.22,0.0,151020,,,E*45
$GPGGA,103230.000,4803.8519,N,00144.0560,W,1,00,,79.8,M,0.0,M,,0000*6D
$GPRMC,103230.000,A,4803.8519,N,00144.0560,W,014.49,0.0,151020,,,E*4C
$GPGGA,103249.000,4803.8123,N,00144.0630,W,1,00,,84.0,M,0.0,M,,0000*62
$GPRMC,103249.000,A,4803.8123,N,00144.0630,W,017.46,0.0,151020,,,E*45
$GPGGA,103259.000,4803.7906,N,00144.0492,W,1,00,,80.5,M,0.0,M,,0000*68
$GPRMC,103259.000,A,4803.7906,N,00144.0492,W,012.21,0.0,151020,,,E*4A
$GPGGA,103309.000,4803.7839,N,00144.0474,W,1,00,,92.2,M,0.0,M,,0000*6D
$GPRMC,103309.000,A,4803.7839,N,00144.0474,W,011.45,0.0,151020,,,E*4A
$GPGGA,103319.000,4803.7729,N,00144.0422,W,1,00,,100.5,M,0.0,M,,0000*5C
$GPRMC,103319.000,A,4803.7729,N,00144.0422,W,007.96,0.0,151020,,,E*4F
$GPGGA,103329.000,4803.7679,N,00144.0473,W,1,00,,96.8,M,0.0,M,,0000*6C
$GPRMC,103329.000,A,4803.7679,N,00144.0473,W,008.25,0.0,151020,,,E*4B
$GPGGA,103339.000,4803.7569,N,00144.0772,W,1,00,,76.3,M,0.0,M,,0000*68
$GPRMC,103339.000,A,4803.7569,N,00144.0772,W,009.76,0.0,151020,,,E*4D
$GPGGA,103350.000,4803.7456,N,00144.0743,W,1,00,,67.4,M,0.0,M,,0000*6F
$GPRMC,103350.000,A,4803.7456,N,00144.0743,W,002.79,0.0,151020,,,E*49
$GPGGA,103400.000,4803.7419,N,00144.0762,W,1,00,,71.6,M,0.0,M,,0000*60
$GPRMC,103400.000,A,4803.7419,N,00144.0762,W,002.67,0.0,151020,,,E*4C
$GPGGA,103440.000,4803.7438,N,00144.0728,W,1,00,,69.6,M,0.0,M,,0000*60
$GPRMC,103440.000,A,4803.7438,N,00144.0728,W,000.80,0.0,151020,,,E*4E
$GPGGA,103719.000,4803.7463,N,00144.0714,W,1,00,,73.4,M,0.0,M,,0000*67
$GPRMC,103719.000,A,4803.7463,N,00144.0714,W,000.11,0.0,151020,,,E*48
$GPGGA,103940.000,4803.7487,N,00144.0692,W,1,00,,71.8,M,0.0,M,,0000*6E
$GPRMC,103940.000,A,4803.7487,N,00144.0692,W,000.10,0.0,151020,,,E*4E
$GPGGA,104120.000,4803.7165,N,00144.0803,W,1,00,,78.4,M,0.0,M,,0000*6D
$GPRMC,104120.000,A,4803.7165,N,00144.0803,W,004.84,0.0,151020,,,E*41
$GPGGA,104159.000,4803.7029,N,00144.0673,W,1,00,,109.4,M,0.0,M,,0000*54
$GPRMC,104159.000,A,4803.7029,N,00144.0673,W,004.44,0.0,151020,,,E*43
$GPGGA,104209.000,4803.6944,N,00144.0611,W,1,00,,67.1,M,0.0,M,,0000*69
$GPRMC,104209.000,A,4803.6944,N,00144.0611,W,007.58,0.0,151020,,,E*4C
$GPGGA,104220.000,4803.6826,N,00144.0528,W,1,00,,79.8,M,0.0,M,,0000*68
$GPRMC,104220.000,A,4803.6826,N,00144.0528,W,005.63,0.0,151020,,,E*41
$GPGGA,104230.000,4803.6771,N,00144.0500,W,1,00,,88.9,M,0.0,M,,0000*61
$GPRMC,104230.000,A,4803.6771,N,00144.0500,W,004.63,0.0,151020,,,E*46
$GPGGA,104250.000,4803.6801,N,00144.0501,W,1,00,,86.4,M,0.0,M,,0000*6D
$GPRMC,104250.000,A,4803.6801,N,00144.0501,W,000.71,0.0,151020,,,E*4E
$GPGGA,105554.000,4803.6815,N,00144.0539,W,1,00,,80.2,M,0.0,M,,0000*61
$GPRMC,105554.000,A,4803.6815,N,00144.0539,W,000.46,0.0,151020,,,E*46
$GPGGA,105613.000,4803.6799,N,00144.0577,W,1,00,,80.3,M,0.0,M,,0000*61
$GPRMC,105613.000,A,4803.6799,N,00144.0577,W,003.08,0.0,151020,,,E*4E
$GPGGA,105703.000,4803.6832,N,00144.0572,W,1,00,,80.3,M,0.0,M,,0000*6A
$GPRMC,105703.000,A,4803.6832,N,00144.0572,W,005.07,0.0,151020,,,E*4C
$GPGGA,105714.000,4803.6780,N,00144.0481,W,1,00,,80.3,M,0.0,M,,0000*67
$GPRMC,105714.000,A,4803.6780,N,00144.0481,W,018.63,0.0,151020,,,E*4F
$GPGGA,105724.000,4803.6571,N,00144.0105,W,1,00,,80.3,M,0.0,M,,0000*61
$GPRMC,105724.000,A,4803.6571,N,00144.0105,W,015.78,0.0,151020,,,E*4E
$GPGGA,105753.000,4803.3644,N,00144.3017,W,1,00,,80.3,M,0.0,M,,0000*60
$GPRMC,105753.000,A,4803.3644,N,00144.3017,W,060.53,0.0,151020,,,E*44
$GPGGA,105804.000,4803.3242,N,00144.3146,W,1,00,,80.3,M,0.0,M,,0000*6A
$GPRMC,105804.000,A,4803.3242,N,00144.3146,W,039.25,0.0,151020,,,E*43
$GPGGA,105815.000,4803.2726,N,00144.2053,W,1,00,,84.0,M,0.0,M,,0000*6F
$GPRMC,105815.000,A,4803.2726,N,00144.2053,W,044.53,0.0,151020,,,E*4A
$GPGGA,105854.000,4803.2059,N,00143.5648,W,1,00,,90.2,M,0.0,M,,0000*6E
$GPRMC,105854.000,A,4803.2059,N,00143.5648,W,077.33,0.0,151020,,,E*4A
$GPGGA,105904.000,4803.1664,N,00143.3990,W,1,00,,100.5,M,0.0,M,,0000*52
$GPRMC,105904.000,A,4803.1664,N,00143.3990,W,077.77,0.0,151020,,,E*49
$GPGGA,105914.000,4803.1214,N,00143.2165,W,1,00,,96.5,M,0.0,M,,0000*6D
$GPRMC,105914.000,A,4803.1214,N,00143.2165,W,113.08,0.0,151020,,,E*43
$GPGGA,105924.000,4803.0654,N,00142.9825,W,1,00,,85.2,M,0.0,M,,0000*6D
$GPRMC,105924.000,A,4803.0654,N,00142.9825,W,098.32,0.0,151020,,,E*4D
$GPGGA,105954.000,4802.9180,N,00142.5492,W,1,00,,105.8,M,0.0,M,,0000*53
$GPRMC,105954.000,A,4802.9180,N,00142.5492,W,019.88,0.0,151020,,,E*48
$GPGGA,110015.000,4802.9002,N,00142.5425,W,1,00,,87.9,M,0.0,M,,0000*66
$GPRMC,110015.000,A,4802.9002,N,00142.5425,W,057.89,0.0,151020,,,E*4C
$GPGGA,110025.000,4802.9618,N,00142.4639,W,1,00,,87.9,M,0.0,M,,0000*66
$GPRMC,110025.000,A,4802.9618,N,00142.4639,W,034.13,0.0,151020,,,E*4A
$GPGGA,110054.000,4803.2147,N,00142.3035,W,1,00,,87.9,M,0.0,M,,0000*6A
$GPRMC,110054.000,A,4803.2147,N,00142.3035,W,097.52,0.0,151020,,,E*4A
$GPGGA,110114.000,4803.4334,N,00142.1485,W,1,00,,77.5,M,0.0,M,,0000*61
$GPRMC,110114.000,A,4803.4334,N,00142.1485,W,101.07,0.0,151020,,,E*4C
$GPGGA,110124.000,4803.5847,N,00142.0345,W,1,00,,80.0,M,0.0,M,,0000*6B
$GPRMC,110124.000,A,4803.5847,N,00142.0345,W,114.16,0.0,151020,,,E*4F
$GPGGA,110135.000,4803.7344,N,00141.9547,W,1,00,,75.9,M,0.0,M,,0000*6C
$GPRMC,110135.000,A,4803.7344,N,00141.9547,W,074.77,0.0,151020,,,E*4B
$GPGGA,110154.000,4804.0046,N,00141.8876,W,1,00,,93.6,M,0.0,M,,0000*63
$GPRMC,110154.000,A,4804.0046,N,00141.8876,W,093.71,0.0,151020,,,E*4C
$GPGGA,110213.000,4804.3081,N,00141.7962,W,1,00,,81.4,M,0.0,M,,0000*61
$GPRMC,110213.000,A,4804.3081,N,00141.7962,W,137.30,0.0,151020,,,E*45
$GPGGA,110224.000,4804.4906,N,00141.7320,W,1,00,,76.4,M,0.0,M,,0000*60
$GPRMC,110224.000,A,4804.4906,N,00141.7320,W,095.15,0.0,151020,,,E*42
$GPGGA,110234.000,4804.6243,N,00141.6511,W,1,00,,90.8,M,0.0,M,,0000*68
$GPRMC,110234.000,A,4804.6243,N,00141.6511,W,087.26,0.0,151020,,,E*4D
$GPGGA,110315.000,4804.8232,N,00140.7600,W,1,00,,82.6,M,0.0,M,,0000*6C
$GPRMC,110315.000,A,4804.8232,N,00140.7600,W,094.64,0.0,151020,,,E*40
$GPGGA,110344.000,4804.8704,N,00140.1303,W,1,00,,83.8,M,0.0,M,,0000*67
$GPRMC,110344.000,A,4804.8704,N,00140.1303,W,099.43,0.0,151020,,,E*4C
$GPGGA,110354.000,4804.8767,N,00139.9263,W,1,00,,65.3,M,0.0,M,,0000*61
$GPRMC,110354.000,A,4804.8767,N,00139.9263,W,091.01,0.0,151020,,,E*47
$GPGGA,110414.000,4804.8777,N,00139.4832,W,1,00,,96.6,M,0.0,M,,0000*69
$GPRMC,110414.000,A,4804.8777,N,00139.4832,W,104.87,0.0,151020,,,E*45
$GPGGA,110424.000,4804.8890,N,00139.2613,W,1,00,,92.7,M,0.0,M,,0000*62
$GPRMC,110424.000,A,4804.8890,N,00139.2613,W,104.87,0.0,151020,,,E*4B
$GPGGA,110444.000,4804.9161,N,00138.7796,W,1,00,,87.6,M,0.0,M,,0000*6F
$GPRMC,110444.000,A,4804.9161,N,00138.7796,W,102.13,0.0,151020,,,E*48
$GPGGA,110505.000,4805.1078,N,00138.3778,W,1,00,,93.2,M,0.0,M,,0000*6E
$GPRMC,110505.000,A,4805.1078,N,00138.3778,W,109.12,0.0,151020,,,E*42
$GPGGA,110515.000,4805.2028,N,00138.1804,W,1,00,,82.0,M,0.0,M,,0000*6D
$GPRMC,110515.000,A,4805.2028,N,00138.1804,W,108.90,0.0,151020,,,E*48
$GPGGA,110535.000,4805.4135,N,00137.7924,W,1,00,,99.7,M,0.0,M,,0000*63
$GPRMC,110535.000,A,4805.4135,N,00137.7924,W,105.80,0.0,151020,,,E*47
$GPGGA,110545.000,4805.5107,N,00137.6179,W,1,00,,71.0,M,0.0,M,,0000*64
$GPRMC,110545.000,A,4805.5107,N,00137.6179,W,094.39,0.0,151020,,,E*4A
$GPGGA,110604.000,4805.6902,N,00137.3083,W,1,00,,92.6,M,0.0,M,,0000*66
$GPRMC,110604.000,A,4805.6902,N,00137.3083,W,092.10,0.0,151020,,,E*4E
$GPGGA,110625.000,4805.8841,N,00136.9559,W,1,00,,100.8,M,0.0,M,,0000*50
$GPRMC,110625.000,A,4805.8841,N,00136.9559,W,095.47,0.0,151020,,,E*49
$GPGGA,110644.000,4806.0099,N,00136.6951,W,1,00,,88.2,M,0.0,M,,0000*61
$GPRMC,110644.000,A,4806.0099,N,00136.6951,W,097.02,0.0,151020,,,E*40
$GPGGA,110654.000,4806.0769,N,00136.5612,W,1,00,,117.1,M,0.0,M,,0000*57
$GPRMC,110654.000,A,4806.0769,N,00136.5612,W,031.39,0.0,151020,,,E*46
$GPGGA,110705.000,4806.1251,N,00136.5020,W,1,00,,129.0,M,0.0,M,,0000*56
$GPRMC,110705.000,A,4806.1251,N,00136.5020,W,065.00,0.0,151020,,,E*40
$GPGGA,110715.000,4806.1714,N,00136.5590,W,1,00,,96.8,M,0.0,M,,0000*60
$GPRMC,110715.000,A,4806.1714,N,00136.5590,W,036.33,0.0,151020,,,E*4D
$GPGGA,110725.000,4806.1941,N,00136.6907,W,1,00,,105.8,M,0.0,M,,0000*57
$GPRMC,110725.000,A,4806.1941,N,00136.6907,W,095.56,0.0,151020,,,E*4B
$GPGGA,110744.000,4806.3884,N,00136.9696,W,1,00,,108.8,M,0.0,M,,0000*5F
$GPRMC,110744.000,A,4806.3884,N,00136.9696,W,048.57,0.0,151020,,,E*4F
$GPGGA,110754.000,4806.4433,N,00136.9772,W,1,00,,78.9,M,0.0,M,,0000*65
$GPRMC,110754.000,A,4806.4433,N,00136.9772,W,025.28,0.0,151020,,,E*41
$GPGGA,110825.000,4806.4982,N,00136.6653,W,1,00,,93.1,M,0.0,M,,0000*6B
$GPRMC,110825.000,A,4806.4982,N,00136.6653,W,043.68,0.0,151020,,,E*46
$GPGGA,110854.000,4806.5860,N,00136.5350,W,1,00,,89.2,M,0.0,M,,0000*6C
$GPRMC,110854.000,A,4806.5860,N,00136.5350,W,038.75,0.0,151020,,,E*49
$GPGGA,110914.000,4806.7424,N,00136.4889,W,1,00,,89.2,M,0.0,M,,0000*69
$GPRMC,110914.000,A,4806.7424,N,00136.4889,W,033.64,0.0,151020,,,E*47
$GPGGA,110934.000,4806.7745,N,00136.3968,W,1,00,,74.5,M,0.0,M,,0000*63
$GPRMC,110934.000,A,4806.7745,N,00136.3968,W,034.47,0.0,151020,,,E*4E
$GPGGA,110955.000,4806.7972,N,00136.4182,W,1,00,,74.8,M,0.0,M,,0000*68
$GPRMC,110955.000,A,4806.7972,N,00136.4182,W,014.36,0.0,151020,,,E*4C
$GPGGA,111034.000,4806.8038,N,00136.4184,W,1,00,,74.8,M,0.0,M,,0000*69
$GPRMC,111034.000,A,4806.8038,N,00136.4184,W,002.49,0.0,151020,,,E*42
